{"_id":{"$oid":"5ea776853d1a5c8d23ce8e20"},"origin":{"province":{"id":"62","label":"Río Negro"},"locality":"EL BOLSON","location":null,"address":"Viamonte y Marmol"},"destination":{"province":{"id":"18","label":"Corrientes"},"locality":"CORRIENTES","location":null,"address":"Brasil 1147"},"mobility":false,"additionalPlaces":0,"economicalIssues":false,"healthIssues":false,"observations":"","stuckedPeopleCount":"1","userId":{"$oid":"5ea7757b368159de7f06b85a"},"createdAt":{"$date":"2020-04-28T00:19:17.952Z"}}
{"_id":{"$oid":"5ea778db3d1a5c02bace8e21"},"origin":{"province":{"id":"50","label":"Mendoza"},"locality":"GUAYMALLEN","location":null,"address":"Villa Santa ana"},"destination":{"province":{"id":"06","label":"Buenos Aires"},"locality":"CASEROS","location":{"lat":"-34.607423","lng":"-58.554581"},"address":"Urquiza 4300"},"mobility":false,"additionalPlaces":0,"economicalIssues":true,"healthIssues":false,"observations":"","stuckedPeopleCount":"1","userId":{"$oid":"5ea777e5368159de7f06b8a7"},"createdAt":{"$date":"2020-04-28T00:29:15.821Z"}}
{"_id":{"$oid":"5ea778ef3d1a5c127fce8e22"},"origin":{"province":{"id":"58","label":"Neuquén"},"locality":"ZAPALA","location":null,"address":"Acá Mahuida 423"},"destination":{"province":{"id":"62","label":"Río Negro"},"locality":"EL BOLSON","location":null,"address":"Los castaños s/n"},"mobility":false,"additionalPlaces":0,"economicalIssues":true,"healthIssues":false,"observations":"Necesito volver, tengo que llegar para juntar leña,no tengo gas,y ya viene la época de lluvia,soy artesana y no tengo sueldo,es urgente volver","stuckedPeopleCount":"1","userId":{"$oid":"5ea77783368159de7f06b898"},"createdAt":{"$date":"2020-04-28T00:29:35.138Z"}}
{"_id":{"$oid":"5ea77a453d1a5cb818ce8e23"},"origin":{"province":{"id":"50","label":"Mendoza"},"locality":"SAN RAFAEL","location":{"lat":"-34.622993","lng":"-68.3059667"},"address":"riobamba"},"destination":{"province":{"id":"06","label":"Buenos Aires"},"locality":"MORENO","location":null,"address":"san martin"},"mobility":false,"additionalPlaces":0,"economicalIssues":true,"healthIssues":false,"observations":"yo no tengo problema de salud, pero necesito viajar a asistir a una persona que necesita acompañamiento.","stuckedPeopleCount":"1","userId":{"$oid":"5ea7798f368159de7f06b8e7"},"createdAt":{"$date":"2020-04-28T00:35:17.066Z"}}
{"_id":{"$oid":"5ea77a973d1a5c7c8ece8e24"},"origin":{"province":{"id":"82","label":"Santa Fe"},"locality":"VENADO TUERTO","location":{"lat":"-33.74962232448979","lng":"-61.97567687959184"},"address":"Francia 878"},"destination":{"province":{"id":"86","label":"Santiago del Estero"},"locality":"SANTIAGO DEL ESTERO","location":{"lat":"-27.786869","lng":"-64.2713729"},"address":"ANDES Y COLON"},"mobility":false,"additionalPlaces":0,"economicalIssues":true,"healthIssues":false,"observations":"Sin dinero para solventar alquiler, estadía y alimentación. Sin trabajo.","stuckedPeopleCount":"1","userId":{"$oid":"5ea77952368159de7f06b8de"},"createdAt":{"$date":"2020-04-28T00:36:39.998Z"}}
{"_id":{"$oid":"5ea77aec3d1a5c0354ce8e25"},"origin":{"province":{"id":"86","label":"Santiago del Estero"},"locality":"LA BANDA","location":null,"address":"Barrio San Fernando "},"destination":{"province":{"id":"78","label":"Santa Cruz"},"locality":"RIO GALLEGOS","location":null,"address":"Barrio Náutico "},"mobility":false,"additionalPlaces":0,"economicalIssues":true,"healthIssues":false,"observations":"","stuckedPeopleCount":"1","userId":{"$oid":"5ea77a16368159de7f06b8f8"},"createdAt":{"$date":"2020-04-28T00:38:04.725Z"}}
{"_id":{"$oid":"5ea77afe3d1a5ca3ccce8e26"},"origin":{"province":{"id":"06","label":"Buenos Aires"},"locality":"BAHIA BLANCA","location":{"lat":"-38.7092864","lng":"-62.2643595"},"address":"Pasaje Húsares  "},"destination":{"province":{"id":"02","label":"Ciudad Autónoma de Buenos Aires"},"locality":"CABALLITO","location":{"lat":"-34.6088176","lng":"-58.4414508"},"address":"Hidalgo"},"mobility":false,"additionalPlaces":0,"economicalIssues":false,"healthIssues":false,"observations":"Mi padre está varado en Bahía Blanca desde el 17 de marzo. Ha cumplido la cuarentena en esa ciudad pero necesita volver a su casa en Capital Federal lo antes posible.","stuckedPeopleCount":"1","userId":{"$oid":"5ea77a2c368159de7f06b904"},"createdAt":{"$date":"2020-04-28T00:38:22.208Z"}}
{"_id":{"$oid":"5ea77b213d1a5c0663ce8e27"},"origin":{"province":{"id":"70","label":"San Juan"},"locality":"SAN JUAN","location":null,"address":"peru 422 norte"},"destination":{"province":{"id":"14","label":"Córdoba"},"locality":"CORDOBA","location":{"lat":"-31.424631085714285","lng":"-64.17765605714285"},"address":"rondeau 685"},"mobility":false,"additionalPlaces":0,"economicalIssues":false,"healthIssues":true,"observations":"Soy paciente con inmunodeficiencia crónica en tratamiento en córdoba, necesito volver y continuar mi tratamiento antes de que se termine mi medicación","stuckedPeopleCount":"1","userId":{"$oid":"5ea77a2a368159de7f06b901"},"createdAt":{"$date":"2020-04-28T00:38:57.633Z"}}
{"_id":{"$oid":"5ea77b9b3d1a5cf7bcce8e28"},"origin":{"province":{"id":"50","label":"Mendoza"},"locality":"GUAYMALLEN","location":{"lat":"-32.8990513","lng":"-68.7635416"},"address":"Roca 632"},"destination":{"province":{"id":"02","label":"Ciudad Autónoma de Buenos Aires"},"locality":"FLORES","location":{"lat":"-34.638828","lng":"-58.470193"},"address":"Remedios 3200"},"mobility":false,"additionalPlaces":0,"economicalIssues":true,"healthIssues":false,"observations":"","stuckedPeopleCount":"1","userId":{"$oid":"5ea77a81368159de7f06b910"},"createdAt":{"$date":"2020-04-28T00:40:59.470Z"}}
{"_id":{"$oid":"5ea77c173d1a5c2815ce8e29"},"origin":{"province":{"id":"66","label":"Salta"},"locality":"SALTA","location":null,"address":"Barrio palermo1"},"destination":{"province":{"id":"62","label":"Río Negro"},"locality":"CIPOLLETTI","location":null,"address":"Bolson 743"},"mobility":false,"additionalPlaces":0,"economicalIssues":false,"healthIssues":false,"observations":"","userId":{"$oid":"5ea77b09368159de7f06b928"},"createdAt":{"$date":"2020-04-28T00:43:03.901Z"}}
{"_id":{"$oid":"5ea77c2a3d1a5c0a3cce8e2a"},"origin":{"province":{"id":"06","label":"Buenos Aires"},"locality":"VILLA GESELL","location":null,"address":"3 y 125"},"destination":{"province":{"id":"06","label":"Buenos Aires"},"locality":"ADROGUE","location":{"lat":"-34.7971496","lng":"-58.3910093"},"address":"La Colorada 1200"},"mobility":true,"additionalPlaces":0,"economicalIssues":true,"healthIssues":true,"observations":"Mis padres se encuentran varados en Villa Gesell. \nMi papá tiene 62 años paciente con efisema pulmonar en tratamiento y mi mamá 59 años paciente con hipotiroidismo en tratamiento. \nSe encuentra con poco dinero. \n","stuckedPeopleCount":"2","userId":{"$oid":"5ea77abc368159de7f06b91a"},"createdAt":{"$date":"2020-04-28T00:43:22.480Z"}}
{"_id":{"$oid":"5ea77c743d1a5c104fce8e2b"},"origin":{"province":{"id":"30","label":"Entre Ríos"},"locality":"CRESPO","location":null,"address":"Calle jacob"},"destination":{"province":{"id":"70","label":"San Juan"},"locality":"RAWSON","location":{"lat":"-31.5618623","lng":"-68.5042245"},"address":"Rodas"},"mobility":true,"additionalPlaces":0,"economicalIssues":true,"healthIssues":false,"observations":"Tengo a mis padres grandes con problemas de salud que atender","stuckedPeopleCount":"2","userId":{"$oid":"5ea77bdd368159de7f06b955"},"createdAt":{"$date":"2020-04-28T00:44:36.380Z"}}
{"_id":{"$oid":"5ea77e3e3d1a5c0975ce8e2c"},"origin":{"province":{"id":"06","label":"Buenos Aires"},"locality":"LA PLATA","location":null,"address":"41 y 7"},"destination":{"province":{"id":"62","label":"Río Negro"},"locality":"LAMARQUE","location":{"lat":"-41.0727196","lng":"-71.163973"},"address":"Malvinas"},"mobility":false,"additionalPlaces":0,"economicalIssues":false,"healthIssues":false,"observations":"Es mi hija de 18 años, esta sola pasando la cuarentena porque se fue a estudiar, pero le suspendieron la universidad... esta intentando retornar sin exito desde 16/03","stuckedPeopleCount":"1","userId":{"$oid":"5ea77d16368159de7f06b98d"},"createdAt":{"$date":"2020-04-28T00:52:14.852Z"}}
{"_id":{"$oid":"5ea77e563d1a5c11bdce8e2d"},"origin":{"province":{"id":"30","label":"Entre Ríos"},"locality":"PARANA","location":{"lat":"-31.729538663157896","lng":"-60.52496400526316"},"address":"La Paz 233"},"destination":{"province":{"id":"82","label":"Santa Fe"},"locality":"ROSARIO","location":null,"address":"Maipú 2228 "},"mobility":false,"additionalPlaces":0,"economicalIssues":false,"healthIssues":false,"observations":"","userId":{"$oid":"5ea77e0e368159de7f06b9b8"},"createdAt":{"$date":"2020-04-28T00:52:38.110Z"}}
{"_id":{"$oid":"5ea77e863d1a5ce78dce8e2e"},"origin":{"province":{"id":"30","label":"Entre Ríos"},"locality":"PARANA","location":{"lat":"-31.729538663157896","lng":"-60.52496400526316"},"address":"La Paz 233"},"destination":{"province":{"id":"82","label":"Santa Fe"},"locality":"ROSARIO","location":{"lat":"-32.96385974489796","lng":"-60.63979276938775"},"address":"Maipú 2228 "},"mobility":false,"additionalPlaces":0,"economicalIssues":false,"healthIssues":false,"observations":"Viajo con mi gata que está saludable y tiene canil. ","stuckedPeopleCount":"1","userId":{"$oid":"5ea77e0e368159de7f06b9b8"},"createdAt":{"$date":"2020-04-28T00:53:26.562Z"}}
{"_id":{"$oid":"5ea77ec03d1a5cee79ce8e2f"},"origin":{"province":{"id":"50","label":"Mendoza"},"locality":"GODOY CRUZ","location":null,"address":"Calle Alerces"},"destination":{"province":{"id":"62","label":"Río Negro"},"locality":"LAS GRUTAS","location":{"lat":"-40.8119169","lng":"-65.096121"},"address":"Arroyo Ventana "},"mobility":false,"additionalPlaces":0,"economicalIssues":false,"healthIssues":false,"observations":"","stuckedPeopleCount":"2","userId":{"$oid":"5ea77d7d368159de7f06b99c"},"createdAt":{"$date":"2020-04-28T00:54:24.371Z"}}
{"_id":{"$oid":"5ea77f2e3d1a5cd2c0ce8e30"},"origin":{"province":{"id":"06","label":"Buenos Aires"},"locality":"MAR DEL PLATA","location":null,"address":"sarmiento y san martn "},"destination":{"province":{"id":"02","label":"Ciudad Autónoma de Buenos Aires"},"locality":"VILLA CRESPO","location":{"lat":"-34.59621031428571","lng":"-58.44685070408163"},"address":"PADILLA 1120"},"mobility":true,"additionalPlaces":0,"economicalIssues":false,"healthIssues":false,"observations":"Nos agaro la cuarentena en en el medio de las vacacionas en miramar. Necesitamos volver a caba, no tenemos ropa de invierno y nos vamosa terminar muriendo de frio. ","stuckedPeopleCount":"4","userId":{"$oid":"5ea77e19368159de7f06b9bb"},"createdAt":{"$date":"2020-04-28T00:56:14.204Z"}}
{"_id":{"$oid":"5ea77fce3d1a5c82b8ce8e31"},"origin":{"province":{"id":"06","label":"Buenos Aires"},"locality":"SAN NICOLAS DE LOS ARROYOS","location":{"lat":"-33.7350831","lng":"-60.1709532"},"address":"Avellaneda 290"},"destination":{"province":{"id":"30","label":"Entre Ríos"},"locality":"FEDERACION","location":null,"address":"Colonia la Argentina "},"mobility":true,"additionalPlaces":"2","economicalIssues":true,"healthIssues":false,"observations":"Quiero volver con mi familia urgente ","stuckedPeopleCount":"2","userId":{"$oid":"5ea77de4368159de7f06b9b0"},"createdAt":{"$date":"2020-04-28T00:58:54.032Z"}}
{"_id":{"$oid":"5ea77fdc3d1a5cfd58ce8e32"},"origin":{"province":{"id":"06","label":"Buenos Aires"},"locality":"CHIVILCOY","location":{"lat":"-34.893152316666665","lng":"-60.015642308333334"},"address":"Bouchardo 30"},"destination":{"province":{"id":"22","label":"Chaco"},"locality":"RESISTENCIA","location":null,"address":"Fotheringham 2200"},"mobility":false,"additionalPlaces":"0","economicalIssues":false,"healthIssues":false,"observations":"","stuckedPeopleCount":"1","userId":{"$oid":"5ea77dc1368159de7f06b9aa"},"createdAt":{"$date":"2020-04-28T00:59:08.462Z"}}
{"_id":{"$oid":"5ea7805c3d1a5c0a64ce8e33"},"origin":{"province":{"id":"78","label":"Santa Cruz"},"locality":"LAS HERAS","location":null,"address":"Pasaje los caracoles "},"destination":{"province":{"id":"50","label":"Mendoza"},"locality":"VILLA ATUEL","location":null,"address":"Hipólito irigoyen 270"},"mobility":false,"additionalPlaces":0,"economicalIssues":true,"healthIssues":false,"observations":"","stuckedPeopleCount":"3","userId":{"$oid":"5ea77e38368159de7f06b9c0"},"createdAt":{"$date":"2020-04-28T01:01:16.667Z"}}
{"_id":{"$oid":"5ea780943d1a5ceee1ce8e34"},"origin":{"province":{"id":"94","label":"Tierra del Fuego, Antártida e Islas del Atlántico Sur"},"locality":"USHUAIA","location":null,"address":"Av Alem 1100"},"destination":{"province":{"id":"26","label":"Chubut"},"locality":"PUERTO MADRYN","location":null,"address":"Av gales 1000"},"mobility":false,"additionalPlaces":0,"economicalIssues":false,"healthIssues":false,"observations":"","stuckedPeopleCount":"0","userId":{"$oid":"5ea77c03368159de7f06b95e"},"createdAt":{"$date":"2020-04-28T01:02:12.141Z"}}
{"_id":{"$oid":"5ea780d53d1a5c4f12ce8e35"},"origin":{"province":{"id":"90","label":"Tucumán"},"locality":"SAN MIGUEL DE TUCUMAN","location":null,"address":"gral paz 700"},"destination":{"province":{"id":"38","label":"Jujuy"},"locality":"PALPALA","location":{"lat":"-24.2666669","lng":"-65.2065729"},"address":"incahuasi 1048"},"mobility":false,"additionalPlaces":0,"economicalIssues":true,"healthIssues":false,"observations":"tengo una mascota (gatita) con la cual se me complica mucho mas volver a casa.","stuckedPeopleCount":"1","userId":{"$oid":"5ea77f9d368159de7f06b9f7"},"createdAt":{"$date":"2020-04-28T01:03:17.407Z"}}
{"_id":{"$oid":"5ea7812d3d1a5c6a75ce8e36"},"origin":{"province":{"id":"14","label":"Córdoba"},"locality":"ORDOÑEZ","location":{"lat":"-32.8356752","lng":"-62.8689024"},"address":" Calle 18 bis"},"destination":{"province":{"id":"22","label":"Chaco"},"locality":"LAS BREÑAS","location":null,"address":"Calle 18 bis entre 3 y 5"},"mobility":false,"additionalPlaces":0,"economicalIssues":true,"healthIssues":false,"observations":"","stuckedPeopleCount":"3","userId":{"$oid":"5ea77fde368159de7f06ba08"},"createdAt":{"$date":"2020-04-28T01:04:45.881Z"}}
{"_id":{"$oid":"5ea781593d1a5cf86ace8e37"},"origin":{"province":{"id":"14","label":"Córdoba"},"locality":"ORDOÑEZ","location":{"lat":"-32.8356752","lng":"-62.8689024"},"address":" Calle 18 bis"},"destination":{"province":{"id":"22","label":"Chaco"},"locality":"LAS BREÑAS","location":null,"address":"Calle 18 bis entre 3 y 5"},"mobility":false,"additionalPlaces":0,"economicalIssues":true,"healthIssues":false,"observations":"","stuckedPeopleCount":"3","userId":{"$oid":"5ea77fde368159de7f06ba08"},"createdAt":{"$date":"2020-04-28T01:05:29.905Z"}}
{"_id":{"$oid":"5ea7818c3d1a5c79e4ce8e38"},"origin":{"province":{"id":"26","label":"Chubut"},"locality":"PUERTO MADRYN","location":{"lat":"-42.7895431","lng":"-65.0731802"},"address":"Barrio peron "},"destination":{"province":{"id":"94","label":"Tierra del Fuego, Antártida e Islas del Atlántico Sur"},"locality":"RIO GRANDE","location":null,"address":"Paso de los andes 3451"},"mobility":false,"additionalPlaces":0,"economicalIssues":true,"healthIssues":false,"observations":"","stuckedPeopleCount":"2","userId":{"$oid":"5ea77f6e368159de7f06b9ef"},"createdAt":{"$date":"2020-04-28T01:06:20.223Z"}}
{"_id":{"$oid":"5ea7819f3d1a5c4551ce8e39"},"origin":{"province":{"id":"14","label":"Córdoba"},"locality":"ORDOÑEZ","location":{"lat":"-32.8356752","lng":"-62.8689024"},"address":" Calle 18 bis"},"destination":{"province":{"id":"22","label":"Chaco"},"locality":"LAS BREÑAS","location":null,"address":"Calle 18 bis entre 3 y 5"},"mobility":false,"additionalPlaces":0,"economicalIssues":true,"healthIssues":false,"observations":"","stuckedPeopleCount":"3","userId":{"$oid":"5ea77fde368159de7f06ba08"},"createdAt":{"$date":"2020-04-28T01:06:39.479Z"}}
{"_id":{"$oid":"5ea781d03d1a5c0182ce8e3a"},"origin":{"province":{"id":"34","label":"Formosa"},"locality":"FORMOSA","location":null,"address":"barrio juan domindo peron"},"destination":{"province":{"id":"02","label":"Ciudad Autónoma de Buenos Aires"},"locality":"CIUDAD DE BUENOS AIRES","location":null,"address":"av rivadavia 1300"},"mobility":true,"additionalPlaces":"3","economicalIssues":true,"healthIssues":false,"observations":"hace 45 dias q estamos varados en formosa y nuestro domicilio no hay ninguna persona cuidando y tenemos miedo q entren a nuestra casa ...","userId":{"$oid":"5ea77fcf368159de7f06ba02"},"createdAt":{"$date":"2020-04-28T01:07:28.507Z"}}
{"_id":{"$oid":"5ea781f43d1a5c2338ce8e3b"},"origin":{"province":{"id":"34","label":"Formosa"},"locality":"FORMOSA","location":null,"address":"barrio juan domindo peron"},"destination":{"province":{"id":"02","label":"Ciudad Autónoma de Buenos Aires"},"locality":"CIUDAD DE BUENOS AIRES","location":null,"address":"av rivadavia 1300"},"mobility":true,"additionalPlaces":"3","economicalIssues":true,"healthIssues":false,"observations":"hace 45 dias q estamos varados en formosa y nuestro domicilio no hay ninguna persona cuidando y tenemos miedo q entren a nuestra casa ...","userId":{"$oid":"5ea77fcf368159de7f06ba02"},"createdAt":{"$date":"2020-04-28T01:08:04.291Z"}}
{"_id":{"$oid":"5ea782473d1a5c0174ce8e3c"},"origin":{"province":{"id":"02","label":"Ciudad Autónoma de Buenos Aires"},"locality":"BALVANERA","location":null,"address":"MORENO Y JUJUY"},"destination":{"province":{"id":"66","label":"Salta"},"locality":"SALTA","location":null,"address":"ZUVIRIA Y AMEGUINO"},"mobility":false,"additionalPlaces":0,"economicalIssues":false,"healthIssues":false,"observations":"ESTOY SOLO, VINE X MOTIVO DE SALUD, SE SUSPENDIO LA CIRUGIA Y QUEDE VARADO.","userId":{"$oid":"5ea77fc9368159de7f06b9fd"},"createdAt":{"$date":"2020-04-28T01:09:27.568Z"}}
{"_id":{"$oid":"5ea782a43d1a5c412ace8e3d"},"origin":{"province":{"id":"14","label":"Córdoba"},"locality":"CORDOBA","location":{"lat":"-31.37301607755102","lng":"-64.18113807142858"},"address":"Jujuy 3535"},"destination":{"province":{"id":"90","label":"Tucumán"},"locality":"AGUILARES","location":{"lat":"-27.4329686","lng":"-65.6141264"},"address":"Avenida sarmiento"},"mobility":false,"additionalPlaces":0,"economicalIssues":true,"healthIssues":false,"observations":"Mi mamá no tiene como seguir en Córdoba","stuckedPeopleCount":"1","userId":{"$oid":"5ea78139368159de7f06ba42"},"createdAt":{"$date":"2020-04-28T01:11:00.170Z"}}
{"_id":{"$oid":"5ea783633d1a5c1423ce8e3e"},"origin":{"province":{"id":"14","label":"Córdoba"},"locality":"RIO CUARTO","location":{"lat":"-33.12182769387755","lng":"-64.35919412857143"},"address":"Buenos Aires 1036"},"destination":{"province":{"id":"14","label":"Córdoba"},"locality":"HUINCA RENANCO","location":{"lat":"-34.8429551","lng":"-64.3726798"},"address":"Juramento 726"},"mobility":true,"additionalPlaces":0,"economicalIssues":true,"healthIssues":true,"observations":"La movilidad propia es de mi papá que se encuentra en el destino al que necesito llegar. Podría venir a buscarme sin problemas.\n","stuckedPeopleCount":"1","userId":{"$oid":"5ea782d1368159de7f06ba8d"},"createdAt":{"$date":"2020-04-28T01:14:11.578Z"}}
{"_id":{"$oid":"5ea783763d1a5c3d1bce8e40"},"origin":{"province":{"id":"42","label":"La Pampa"},"locality":"SANTA ROSA","location":{"lat":"-36.62928742040817","lng":"-64.30204145714286"},"address":"Venezuela 1353"},"destination":{"province":{"id":"14","label":"Córdoba"},"locality":"CORDOBA","location":{"lat":"-31.426081130612246","lng":"-64.19004726938776"},"address":"Fructuoso Rivera 110"},"mobility":false,"additionalPlaces":0,"economicalIssues":true,"healthIssues":false,"observations":"Debo regresar al trabajo ","stuckedPeopleCount":"1","userId":{"$oid":"5ea782e6368159de7f06ba93"},"createdAt":{"$date":"2020-04-28T01:14:30.923Z"}}
{"_id":{"$oid":"5ea783783d1a5c3515ce8e41"},"origin":{"province":{"id":"58","label":"Neuquén"},"locality":"JUNIN DE LOS ANDES","location":null,"address":"Curruhue 93"},"destination":{"province":{"id":"14","label":"Córdoba"},"locality":"ARIAS","location":{"lat":"-33.6424288","lng":"-62.406113"},"address":"Corrientes 1292"},"mobility":true,"additionalPlaces":0,"economicalIssues":true,"healthIssues":false,"observations":"","route":"Junín Neuquén la pampa ruta 33 y ruta 8","controls":"Nos pagaron en tres controles todo bien en Chocon un poco de mal humor de parte de gendarmería y desp no nos pagaron más ","stuckedPeopleCount":"2","userId":{"$oid":"5ea781e7368159de7f06ba61"},"createdAt":{"$date":"2020-04-28T01:14:32.713Z"}}
{"_id":{"$oid":"5ea784993d1a5c2b06ce8e42"},"origin":{"province":{"id":"62","label":"Río Negro"},"locality":"CIPOLLETTI","location":null,"address":"Barrio Los Sauces"},"destination":{"province":{"id":"42","label":"La Pampa"},"locality":"SANTA ROSA","location":null,"address":"Gobernador Duval N246"},"mobility":false,"additionalPlaces":0,"economicalIssues":true,"healthIssues":true,"observations":"Tiene una mano lesionada, se corto un tendon trabajando para subsistir","stuckedPeopleCount":"-1","userId":{"$oid":"5ea783cf368159de7f06baba"},"createdAt":{"$date":"2020-04-28T01:19:21.712Z"}}
{"_id":{"$oid":"5ea784a23d1a5c24fdce8e43"},"origin":{"address":"San martin 1300","province":{"id":"14","label":"Córdoba"},"locality":"CORDOBA"},"destination":{"province":{"id":"22","label":"Chaco"},"locality":"RESISTENCIA","location":null,"address":"Calle 27 y boggio"},"mobility":false,"additionalPlaces":0,"economicalIssues":true,"healthIssues":false,"observations":"","stuckedPeopleCount":"1","userId":{"$oid":"5ea782de368159de7f06ba90"},"createdAt":{"$date":"2020-04-28T01:19:30.423Z"}}
{"_id":{"$oid":"5ea784aa3d1a5c92bcce8e44"},"origin":{"province":{"id":"62","label":"Río Negro"},"locality":"SAN CARLOS DE BARILOCHE","location":{"lat":"-41.1260146","lng":"-71.3938633"},"address":"Patagua 7500"},"destination":{"province":{"id":"82","label":"Santa Fe"},"locality":"CAÑADA DE GOMEZ","location":{"lat":"-32.8037107","lng":"-61.3878854"},"address":"Sarmiento 2100"},"mobility":false,"additionalPlaces":0,"economicalIssues":true,"healthIssues":false,"observations":"","stuckedPeopleCount":"2","userId":{"$oid":"5ea783d4368159de7f06babd"},"createdAt":{"$date":"2020-04-28T01:19:38.800Z"}}
{"_id":{"$oid":"5ea784cb3d1a5c6f36ce8e45"},"origin":{"address":"San martin 1300","province":{"id":"14","label":"Córdoba"},"locality":"CORDOBA"},"destination":{"province":{"id":"22","label":"Chaco"},"locality":"RESISTENCIA","location":null,"address":"Calle 27 y boggio"},"mobility":false,"additionalPlaces":0,"economicalIssues":true,"healthIssues":false,"observations":"","stuckedPeopleCount":"1","userId":{"$oid":"5ea782de368159de7f06ba90"},"createdAt":{"$date":"2020-04-28T01:20:11.704Z"}}
{"_id":{"$oid":"5ea786043d1a5c4245ce8e46"},"origin":{"province":{"id":"02","label":"Ciudad Autónoma de Buenos Aires"},"locality":"CABALLITO","location":{"lat":"-34.61624424081633","lng":"-58.430064953061226"},"address":"Senillosa 33"},"destination":{"province":{"id":"14","label":"Córdoba"},"locality":"CORDOBA","location":{"lat":"-31.6918309","lng":"-63.887732"},"address":"Cochabamba 1700"},"mobility":false,"additionalPlaces":0,"economicalIssues":false,"healthIssues":false,"observations":"","stuckedPeopleCount":"1","userId":{"$oid":"5ea7854e368159de7f06baf5"},"createdAt":{"$date":"2020-04-28T01:25:24.731Z"}}
{"_id":{"$oid":"5ea786703d1a5cd07ece8e47"},"origin":{"province":{"id":"02","label":"Ciudad Autónoma de Buenos Aires"},"locality":"ALMAGRO","location":{"lat":"-34.61786670816326","lng":"-58.42139927959184"},"address":"yapeyu 506"},"destination":{"province":{"id":"14","label":"Córdoba"},"locality":"LAS PALMAS","location":null,"address":"publica 2"},"mobility":false,"additionalPlaces":0,"economicalIssues":true,"healthIssues":false,"observations":"hola mi marido se encuentra varado en buenos aires, necesita volver con suma urgencia ya que yo y mi hijo nos encontramos en córdoba ya hace 2 meses no lo vemos el se fue por tema de trabajo y quedo varado, el nene necesita sus pañales sus cosas y yo acá no le puedo brindar eso el es un uniyapeyuco que tiene los medios para brindarle eso ademas que extraña ver a su bebe de 5 meses, necesitamos ayuda.","stuckedPeopleCount":"1","userId":{"$oid":"5ea778e8368159de7f06b8c9"},"createdAt":{"$date":"2020-04-28T01:27:12.970Z"}}
{"_id":{"$oid":"5ea786733d1a5cf627ce8e48"},"origin":{"province":{"id":"50","label":"Mendoza"},"locality":"SAN JOSE","location":{"lat":"-34.6147867","lng":"-68.3345452"},"address":"Capital, microcentro"},"destination":{"province":{"id":"58","label":"Neuquén"},"locality":"CHOS MALAL","location":{"lat":"-37.3766521","lng":"-70.272448"},"address":"Centro"},"mobility":false,"additionalPlaces":0,"economicalIssues":true,"healthIssues":false,"observations":"Estoy en Mendoza capital, microcentro, no me da opción para poner localidad correcta.","stuckedPeopleCount":"1","userId":{"$oid":"5ea78208368159de7f06ba69"},"createdAt":{"$date":"2020-04-28T01:27:15.253Z"}}
{"_id":{"$oid":"5ea786fa3d1a5c361bce8e49"},"origin":{"province":{"id":"26","label":"Chubut"},"locality":"COMODORO RIVADAVIA","location":null,"address":"Maliqueo sin número "},"destination":{"province":{"id":"14","label":"Córdoba"},"locality":"RIO CEBALLOS","location":null,"address":"Villa Juliana.."},"mobility":true,"additionalPlaces":0,"economicalIssues":false,"healthIssues":true,"observations":"Tengo hijos q me esperan a las cual no veo hace mes y medio..nesecitamos volver porfavor","stuckedPeopleCount":"4","userId":{"$oid":"5ea77783368159de7f06b898"},"createdAt":{"$date":"2020-04-28T01:29:30.738Z"}}
{"_id":{"$oid":"5ea7873d3d1a5c764dce8e4a"},"origin":{"province":{"id":"50","label":"Mendoza"},"locality":"CIUDAD DE SAN MARTIN","location":{"lat":"-32.88870995","lng":"-68.83857524999999"},"address":"Lavalle 35"},"destination":{"province":{"id":"06","label":"Buenos Aires"},"locality":"PEDRO LURO","location":{"lat":"-39.5042374","lng":"-62.682928"},"address":"809"},"mobility":false,"additionalPlaces":0,"economicalIssues":true,"healthIssues":true,"observations":"Estoy varada en Ciudad de Mendoza pero no me sale la opción arriba. Soy estudiante, se me agota el dinero y sufro momentos de ansiedad y pánico. Mi familia podría ir a buscarme hasta Bahía Blanca o cercanías, si consigo viaje ","stuckedPeopleCount":"1","userId":{"$oid":"5ea78418368159de7f06bac6"},"createdAt":{"$date":"2020-04-28T01:30:37.238Z"}}
{"_id":{"$oid":"5ea788c43d1a5c1bdace8e4b"},"origin":{"province":{"id":"90","label":"Tucumán"},"locality":"SAN MIGUEL DE TUCUMAN","location":{"lat":"-26.8249378","lng":"-65.2206802"},"address":"Mendoza 1600"},"destination":{"province":{"id":"82","label":"Santa Fe"},"locality":"ROSARIO","location":null,"address":"Bv Oroño 500"},"mobility":false,"additionalPlaces":0,"economicalIssues":false,"healthIssues":false,"observations":"Necesito volver a mi hogar en rosario, estoy parando en lo de unos conocidos en san miguel de tucuman. Agradezco todo este movimiento en favor de todos los que necesitamos regresar a nuestras casas","stuckedPeopleCount":"1","userId":{"$oid":"5ea78821368159de7f06bb5f"},"createdAt":{"$date":"2020-04-28T01:37:08.039Z"}}
{"_id":{"$oid":"5ea788e53d1a5c3470ce8e4c"},"origin":{"province":{"id":"10","label":"Catamarca"},"locality":"BELEN","location":{"lat":"-27.5467521","lng":"-67.0062108"},"address":"La puerta de San José"},"destination":{"province":{"id":"06","label":"Buenos Aires"},"locality":"MERLO","location":{"lat":"-34.4541012","lng":"-58.5407091"},"address":"Victoria 1550"},"mobility":false,"additionalPlaces":0,"economicalIssues":true,"healthIssues":false,"observations":"","stuckedPeopleCount":"2","userId":{"$oid":"5ea77783368159de7f06b898"},"createdAt":{"$date":"2020-04-28T01:37:41.793Z"}}
{"_id":{"$oid":"5ea7892c3d1a5c7d1fce8e4d"},"origin":{"province":{"id":"54","label":"Misiones"},"locality":"SAN PEDRO","location":null,"address":"25 de Mayo edificio INOS"},"destination":{"province":{"id":"90","label":"Tucumán"},"locality":"CONCEPCION","location":{"lat":"-27.354523","lng":"-65.5902857"},"address":"Juana Manso 926 Barrio San Andrés"},"mobility":false,"additionalPlaces":0,"economicalIssues":true,"healthIssues":false,"observations":"","stuckedPeopleCount":"1","userId":{"$oid":"5ea788af368159de7f06bb75"},"createdAt":{"$date":"2020-04-28T01:38:52.176Z"}}
{"_id":{"$oid":"5ea789523d1a5c44ffce8e4e"},"origin":{"province":{"id":"14","label":"Córdoba"},"locality":"VILLA DEL DIQUE","location":null,"address":"Eslovaquia y Catamarca"},"destination":{"province":{"id":"02","label":"Ciudad Autónoma de Buenos Aires"},"locality":"CIUDAD DE BUENOS AIRES","location":{"lat":"-34.6044292","lng":"-58.3802644"},"address":"9 de julio 200"},"mobility":false,"additionalPlaces":0,"economicalIssues":false,"healthIssues":false,"observations":"","stuckedPeopleCount":"1","userId":{"$oid":"5ea787f7368159de7f06bb59"},"createdAt":{"$date":"2020-04-28T01:39:30.399Z"}}
{"_id":{"$oid":"5ea7897b3d1a5c5631ce8e4f"},"origin":{"province":{"id":"78","label":"Santa Cruz"},"locality":"EL CALAFATE","location":null,"address":"ruta 40"},"destination":{"province":{"id":"02","label":"Ciudad Autónoma de Buenos Aires"},"locality":"CIUDAD DE BUENOS AIRES","location":{"lat":"-34.817160650000005","lng":"-58.54740827862938"},"address":"aeropuerto ezeiza"},"mobility":false,"additionalPlaces":0,"economicalIssues":true,"healthIssues":false,"observations":"","stuckedPeopleCount":"2","userId":{"$oid":"5ea78691368159de7f06bb26"},"createdAt":{"$date":"2020-04-28T01:40:11.183Z"}}
{"_id":{"$oid":"5ea789af3d1a5cbf0bce8e52"},"origin":{"province":{"id":"78","label":"Santa Cruz"},"locality":"RIO GALLEGOS","location":{"lat":"-51.61398064693878","lng":"-69.2261120755102"},"address":"Mendoza 187"},"destination":{"province":{"id":"14","label":"Córdoba"},"locality":"VILLA RUMIPAL","location":null,"address":"El mangrullo"},"mobility":false,"additionalPlaces":0,"economicalIssues":false,"healthIssues":false,"observations":"Soy solo.. ","stuckedPeopleCount":"1","userId":{"$oid":"5ea77783368159de7f06b898"},"createdAt":{"$date":"2020-04-28T01:41:03.653Z"}}
{"_id":{"$oid":"5ea789b83d1a5c4c2cce8e56"},"origin":{"province":{"id":"78","label":"Santa Cruz"},"locality":"RIO GALLEGOS","location":{"lat":"-51.61398064693878","lng":"-69.2261120755102"},"address":"Mendoza 187"},"destination":{"province":{"id":"66","label":"Salta"},"locality":"EL CARRIL","location":null,"address":"Ntra Sra de las Mercedes Mza A Casa 9 II etapa"},"mobility":false,"additionalPlaces":0,"economicalIssues":false,"healthIssues":false,"observations":"Soy Enfermero ... Quede sin trabajo","stuckedPeopleCount":"1","userId":{"$oid":"5ea788c2368159de7f06bb7a"},"createdAt":{"$date":"2020-04-28T01:41:12.942Z"}}
{"_id":{"$oid":"5ea78aef3d1a5c1edfce8e5c"},"origin":{"province":{"id":"94","label":"Tierra del Fuego, Antártida e Islas del Atlántico Sur"},"locality":"RIO GRANDE","location":null,"address":"Santiago Ojeda 470 "},"destination":{"province":{"id":"22","label":"Chaco"},"locality":"RESISTENCIA","location":{"lat":"-27.43505168791946","lng":"-58.980203869127514"},"address":"Cacique ñare 215"},"mobility":false,"additionalPlaces":0,"economicalIssues":false,"healthIssues":true,"observations":"","stuckedPeopleCount":"2","userId":{"$oid":"5ea789ea368159de7f06bbbb"},"createdAt":{"$date":"2020-04-28T01:46:23.144Z"}}
{"_id":{"$oid":"5ea78bae3d1a5c2de0ce8e5d"},"origin":{"province":{"id":"54","label":"Misiones"},"locality":"POSADAS","location":{"lat":"-27.3705948","lng":"-55.8861315"},"address":"Entre rios 1000"},"destination":{"province":{"id":"10","label":"Catamarca"},"locality":"SAN FERNANDO DEL VALLE DE CATAMARCA","location":null,"address":"Cordoba 105"},"mobility":false,"additionalPlaces":0,"economicalIssues":false,"healthIssues":false,"observations":"Stoy solo,no tngo problemas de salud","userId":{"$oid":"5ea77783368159de7f06b898"},"createdAt":{"$date":"2020-04-28T01:49:34.942Z"}}
{"_id":{"$oid":"5ea78bee3d1a5cc33bce8e5e"},"origin":{"province":{"id":"06","label":"Buenos Aires"},"locality":"SAN CLEMENTE DEL TUYU","location":null,"address":"Calle 25"},"destination":{"province":{"id":"02","label":"Ciudad Autónoma de Buenos Aires"},"locality":"CIUDAD DE BUENOS AIRES","location":{"lat":"-34.5575484","lng":"-58.6125816"},"address":"Calle Libertad y Libertador"},"mobility":false,"additionalPlaces":0,"economicalIssues":false,"healthIssues":false,"observations":"No tiene auto. No tiene problemas de salud. ","stuckedPeopleCount":"1","userId":{"$oid":"5ea78aa3368159de7f06bbd6"},"createdAt":{"$date":"2020-04-28T01:50:38.877Z"}}
{"_id":{"$oid":"5ea78c5c3d1a5c3b79ce8e5f"},"origin":{"province":{"id":"06","label":"Buenos Aires"},"locality":"AVELLANEDA","location":{"lat":"-34.6630403632653","lng":"-58.3853933877551"},"address":"Guifra 912"},"destination":{"province":{"id":"66","label":"Salta"},"locality":"SAN JOSE DE METAN","location":{"lat":"-25.5098789","lng":"-64.9660176"},"address":"España 45"},"mobility":false,"additionalPlaces":0,"economicalIssues":true,"healthIssues":false,"observations":"","stuckedPeopleCount":"1","userId":{"$oid":"5ea78bca368159de7f06bc13"},"createdAt":{"$date":"2020-04-28T01:52:28.773Z"}}
{"_id":{"$oid":"5ea78c743d1a5c392ace8e60"},"origin":{"province":{"id":"74","label":"San Luis"},"locality":"SAN LUIS","location":null,"address":"Barrio Rawson. Gregorio Paez"},"destination":{"province":{"id":"50","label":"Mendoza"},"locality":"GODOY CRUZ","location":null,"address":"Barrio la gloria"},"mobility":false,"additionalPlaces":0,"economicalIssues":true,"healthIssues":false,"observations":"Ya no tiene recursos para seguir estando,en esta provincia. Y tampoco tiene para pagar el transporte. ","stuckedPeopleCount":"1","userId":{"$oid":"5ea78974368159de7f06bb9c"},"createdAt":{"$date":"2020-04-28T01:52:52.842Z"}}
{"_id":{"$oid":"5ea78c7e3d1a5c1191ce8e61"},"origin":{"province":{"id":"50","label":"Mendoza"},"locality":"CAPITAN MONTOYA","location":null,"address":"Av Belgrano "},"destination":{"province":{"id":"62","label":"Río Negro"},"locality":"CATRIEL","location":null,"address":"Bahamas "},"mobility":true,"additionalPlaces":0,"economicalIssues":true,"healthIssues":false,"observations":"Tengo que pasar a buscar a mi madre que está en San Rafael Mendoza desde hace cuarenta días y es un adulto mayor","stuckedPeopleCount":"4","userId":{"$oid":"5ea78ac7368159de7f06bbdc"},"createdAt":{"$date":"2020-04-28T01:53:02.515Z"}}
{"_id":{"$oid":"5ea78cdb3d1a5c9d2cce8e62"},"origin":{"province":{"id":"06","label":"Buenos Aires"},"locality":"INGENIERO MASCHWITZ","location":null,"address":"Lambare y perito moreno 1244"},"destination":{"province":{"id":"86","label":"Santiago del Estero"},"locality":"LA BANDA","location":null,"address":"Amadeo yacque S/N barrio villa nueva"},"mobility":false,"additionalPlaces":0,"economicalIssues":true,"healthIssues":false,"observations":"","stuckedPeopleCount":"2","userId":{"$oid":"5ea77783368159de7f06b898"},"createdAt":{"$date":"2020-04-28T01:54:35.518Z"}}
{"_id":{"$oid":"5ea78d433d1a5c55e6ce8e63"},"origin":{"province":{"id":"18","label":"Corrientes"},"locality":"CORRIENTES","location":null,"address":"Milan y Cazadores Correntinos, Barrio 17 de agosto "},"destination":{"province":{"id":"02","label":"Ciudad Autónoma de Buenos Aires"},"locality":"CIUDAD DE BUENOS AIRES","location":{"lat":"-34.60267876938775","lng":"-58.42748944897959"},"address":"Av. Corrientes 4422"},"mobility":false,"additionalPlaces":"1","economicalIssues":true,"healthIssues":false,"observations":"Mi mujer y mi hija están en Corrientes. Quisiera ir a buscarlas y traerlas de regreso a Capital Federal. Soy profesional de la salud. ","stuckedPeopleCount":"2","userId":{"$oid":"5ea78be1368159de7f06bc1b"},"createdAt":{"$date":"2020-04-28T01:56:19.664Z"}}
{"_id":{"$oid":"5ea78daf3d1a5cdff8ce8e64"},"origin":{"province":{"id":"50","label":"Mendoza"},"locality":"SAN RAFAEL","location":{"lat":"-34.6300006","lng":"-68.3256322"},"address":"Segovia 600"},"destination":{"province":{"id":"06","label":"Buenos Aires"},"locality":"BAHIA BLANCA","location":{"lat":"-38.7132253","lng":"-62.273191"},"address":"Estomba 600"},"mobility":false,"additionalPlaces":0,"economicalIssues":false,"healthIssues":false,"observations":"Necesito volver a mi casa x que me quedé sin medicación y estoy entrando en estado depresivo y otra que yo tengo que atender a una abuela x ahora me está reemplazando mi hija pero si a ella le cambian los horarios de trabajo la abuela queda desamparada ","stuckedPeopleCount":"1","userId":{"$oid":"5ea78c6d368159de7f06bc40"},"createdAt":{"$date":"2020-04-28T01:58:07.383Z"}}
{"_id":{"$oid":"5ea78dbd3d1a5c76c2ce8e65"},"origin":{"province":{"id":"06","label":"Buenos Aires"},"locality":"MAR DEL PLATA","location":null,"address":"Dorrego 1100"},"destination":{"province":{"id":"26","label":"Chubut"},"locality":"COMODORO RIVADAVIA","location":{"lat":"-45.8285339","lng":"-67.5453823"},"address":"Fray luis Beltrán 1000"},"mobility":true,"additionalPlaces":0,"economicalIssues":true,"healthIssues":false,"observations":"","stuckedPeopleCount":"2","userId":{"$oid":"5ea78cb4368159de7f06bc50"},"createdAt":{"$date":"2020-04-28T01:58:21.180Z"}}
{"_id":{"$oid":"5ea78dc33d1a5c4931ce8e66"},"origin":{"province":{"id":"90","label":"Tucumán"},"locality":"TAFI VIEJO","location":null,"address":"Calle 37 n 474"},"destination":{"province":{"id":"78","label":"Santa Cruz"},"locality":"EL CALAFATE","location":null,"address":"Calle irma mendez y hermanos iglesias"},"mobility":false,"additionalPlaces":"0","economicalIssues":true,"healthIssues":false,"observations":"No","stuckedPeopleCount":"3","userId":{"$oid":"5ea78c1d368159de7f06bc30"},"createdAt":{"$date":"2020-04-28T01:58:27.001Z"}}
{"_id":{"$oid":"5ea78dd23d1a5ce1ecce8e67"},"origin":{"province":{"id":"50","label":"Mendoza"},"locality":"SAN RAFAEL","location":{"lat":"-34.6300006","lng":"-68.3256322"},"address":"Segovia 600"},"destination":{"province":{"id":"06","label":"Buenos Aires"},"locality":"BAHIA BLANCA","location":{"lat":"-38.7132253","lng":"-62.273191"},"address":"Estomba 600"},"mobility":false,"additionalPlaces":0,"economicalIssues":false,"healthIssues":false,"observations":"Necesito volver a mi casa x que me quedé sin medicación y estoy entrando en estado depresivo y otra que yo tengo que atender a una abuela x ahora me está reemplazando mi hija pero si a ella le cambian los horarios de trabajo la abuela queda desamparada ","stuckedPeopleCount":"1","userId":{"$oid":"5ea78c6d368159de7f06bc40"},"createdAt":{"$date":"2020-04-28T01:58:42.251Z"}}
{"_id":{"$oid":"5ea78e0c3d1a5cab0cce8e68"},"origin":{"province":{"id":"06","label":"Buenos Aires"},"locality":"COLONIA SAN MARTIN","location":null,"address":"Calle San Vicente  5418"},"destination":{"province":{"id":"14","label":"Córdoba"},"locality":"VALLE HERMOSO","location":null,"address":"Güemes s/n "},"mobility":false,"additionalPlaces":0,"economicalIssues":true,"healthIssues":false,"observations":"","userId":{"$oid":"5ea77783368159de7f06b898"},"createdAt":{"$date":"2020-04-28T01:59:40.085Z"}}
{"_id":{"$oid":"5ea78e263d1a5ccc6cce8e69"},"origin":{"province":{"id":"06","label":"Buenos Aires"},"locality":"ENSENADA","location":null,"address":"Presidente Perón 518"},"destination":{"province":{"id":"54","label":"Misiones"},"locality":"ARISTOBULO DEL VALLE","location":{"lat":"-27.1036961","lng":"-54.885192"},"address":"Barrio hospital"},"mobility":false,"additionalPlaces":0,"economicalIssues":true,"healthIssues":false,"observations":"","stuckedPeopleCount":"1","userId":{"$oid":"5ea78d7d368159de7f06bc75"},"createdAt":{"$date":"2020-04-28T02:00:06.182Z"}}
{"_id":{"$oid":"5ea78e843d1a5c4c63ce8e6a"},"origin":{"province":{"id":"78","label":"Santa Cruz"},"locality":"CALETA OLIVIA","location":{"lat":"-46.46378568888889","lng":"-67.52604133333332"},"address":"Pocha juarez 276"},"destination":{"province":{"id":"22","label":"Chaco"},"locality":"RESISTENCIA","location":null,"address":"Arbo y blanco 2715"},"mobility":false,"additionalPlaces":0,"economicalIssues":true,"healthIssues":false,"observations":"","stuckedPeopleCount":"1","userId":{"$oid":"5ea77783368159de7f06b898"},"createdAt":{"$date":"2020-04-28T02:01:40.677Z"}}
{"_id":{"$oid":"5ea78e8e3d1a5c573dce8e6b"},"origin":{"province":{"id":"66","label":"Salta"},"locality":"SAN RAMON DE LA NUEVA ORAN","location":null,"address":"Coronel Egues 432"},"destination":{"province":{"id":"78","label":"Santa Cruz"},"locality":"RIO GALLEGOS","location":null,"address":"Hernán cortéz 2540"},"mobility":false,"additionalPlaces":"1","economicalIssues":true,"healthIssues":true,"observations":"Estuve derivada en marzo a bs.aires haciendo estudios cardiológicos","stuckedPeopleCount":"1","userId":{"$oid":"5ea78ca8368159de7f06bc4d"},"createdAt":{"$date":"2020-04-28T02:01:50.210Z"}}
{"_id":{"$oid":"5ea78f353d1a5c431fce8e6d"},"origin":{"province":{"id":"74","label":"San Luis"},"locality":"POTRERO DE LOS FUNES","location":null,"address":"Los Eucaliptos 50"},"destination":{"province":{"id":"54","label":"Misiones"},"locality":"ESPERANZA","location":{"lat":"-26.0151621","lng":"-54.6191344"},"address":"San Martin S/n"},"mobility":false,"additionalPlaces":0,"economicalIssues":false,"healthIssues":false,"observations":"","stuckedPeopleCount":"1","userId":{"$oid":"5ea78d5e368159de7f06bc70"},"createdAt":{"$date":"2020-04-28T02:04:37.981Z"}}
{"_id":{"$oid":"5ea78f353d1a5c499ace8e6c"},"origin":{"province":{"id":"74","label":"San Luis"},"locality":"POTRERO DE LOS FUNES","location":null,"address":"Los Eucaliptos 50"},"destination":{"province":{"id":"54","label":"Misiones"},"locality":"ESPERANZA","location":{"lat":"-26.0151621","lng":"-54.6191344"},"address":"San Martin S/n"},"mobility":false,"additionalPlaces":0,"economicalIssues":false,"healthIssues":false,"observations":"","stuckedPeopleCount":"1","userId":{"$oid":"5ea78d5e368159de7f06bc70"},"createdAt":{"$date":"2020-04-28T02:04:37.597Z"}}
{"_id":{"$oid":"5ea78ff23d1a5c9b7cce8e6e"},"origin":{"province":{"id":"90","label":"Tucumán"},"locality":"TAFI DEL VALLE","location":null,"address":"Kilómetros 65 La Quiebradita"},"destination":{"province":{"id":"06","label":"Buenos Aires"},"locality":"SAN PEDRO","location":{"lat":"-33.67194230204082","lng":"-59.67000000816327"},"address":"Reinaldo Ansaloni 360"},"mobility":true,"additionalPlaces":"","economicalIssues":true,"healthIssues":true,"observations":"Hola tengo Artritis rematoidea y hipotiroidismo y ya no tengo Medicación deseo volver a mi casa. No tengo vehículo.","stuckedPeopleCount":"1","userId":{"$oid":"5ea78e8d368159de7f06bcaa"},"createdAt":{"$date":"2020-04-28T02:07:46.384Z"}}
{"_id":{"$oid":"5ea790223d1a5c98a0ce8e70"},"origin":{"province":{"id":"74","label":"San Luis"},"locality":"POTRERO DE LOS FUNES","location":null,"address":"Los Eucaliptos 50"},"destination":{"province":{"id":"54","label":"Misiones"},"locality":"ESPERANZA","location":{"lat":"-26.0151621","lng":"-54.6191344"},"address":"San Martin S/n"},"mobility":false,"additionalPlaces":0,"economicalIssues":false,"healthIssues":false,"observations":"","stuckedPeopleCount":"1","userId":{"$oid":"5ea78d5e368159de7f06bc70"},"createdAt":{"$date":"2020-04-28T02:08:34.821Z"}}
{"_id":{"$oid":"5ea790223d1a5cfb3fce8e6f"},"origin":{"province":{"id":"74","label":"San Luis"},"locality":"POTRERO DE LOS FUNES","location":null,"address":"Los Eucaliptos 50"},"destination":{"province":{"id":"54","label":"Misiones"},"locality":"ESPERANZA","location":{"lat":"-26.0151621","lng":"-54.6191344"},"address":"San Martin S/n"},"mobility":false,"additionalPlaces":0,"economicalIssues":false,"healthIssues":false,"observations":"","stuckedPeopleCount":"1","userId":{"$oid":"5ea78d5e368159de7f06bc70"},"createdAt":{"$date":"2020-04-28T02:08:34.638Z"}}
{"_id":{"$oid":"5ea790833d1a5c25edce8e72"},"origin":{"province":{"id":"54","label":"Misiones"},"locality":"ELDORADO","location":null,"address":"J.kirchhoff 137b porvenir"},"destination":{"province":{"id":"86","label":"Santiago del Estero"},"locality":"LA BANDA","location":null,"address":"B°25de mayo Mza3L3 "},"mobility":false,"additionalPlaces":0,"economicalIssues":true,"healthIssues":false,"observations":"No tengo mucha plata vine por una emergencia familiar me pagaron el boleto no estoy en fecha de cobro","stuckedPeopleCount":"2","userId":{"$oid":"5ea77783368159de7f06b898"},"createdAt":{"$date":"2020-04-28T02:10:11.306Z"}}
{"_id":{"$oid":"5ea790873d1a5c1aaace8e73"},"origin":{"province":{"id":"22","label":"Chaco"},"locality":"RESISTENCIA","location":{"lat":"-27.45958112244898","lng":"-58.97801184693878"},"address":"Los Hacheros 55"},"destination":{"province":{"id":"90","label":"Tucumán"},"locality":"SAN MIGUEL DE TUCUMAN","location":{"lat":"-26.834093651020407","lng":"-65.20851905510204"},"address":"Chacabuco 284"},"mobility":false,"additionalPlaces":"0","economicalIssues":false,"healthIssues":false,"observations":"Por motivos laborales debo volver a Tucumán.-","stuckedPeopleCount":"0","userId":{"$oid":"5ea78fa9368159de7f06bcd9"},"createdAt":{"$date":"2020-04-28T02:10:15.216Z"}}
{"_id":{"$oid":"5ea792503d1a5cbdb3ce8e74"},"origin":{"province":{"id":"54","label":"Misiones"},"locality":"ELDORADO","location":null,"address":"J.kirchoff 137 B porvenir km1"},"destination":{"province":{"id":"86","label":"Santiago del Estero"},"locality":"LA BANDA","location":null,"address":"B 25 de mayo ampliación "},"mobility":false,"additionalPlaces":0,"economicalIssues":true,"healthIssues":false,"observations":"No tengo como volver y ni pagar tanta plata vine por que falleció mi mamá y  me agarró la cuarentena","stuckedPeopleCount":"2","userId":{"$oid":"5ea791af368159de7f06bd26"},"createdAt":{"$date":"2020-04-28T02:17:52.917Z"}}
{"_id":{"$oid":"5ea7926b3d1a5ce302ce8e75"},"origin":{"province":{"id":"90","label":"Tucumán"},"locality":"SAN MIGUEL DE TUCUMAN","location":{"lat":"-26.830061914285714","lng":"-65.20200202040816"},"address":"San Martin 337"},"destination":{"province":{"id":"14","label":"Córdoba"},"locality":"MINA CLAVERO","location":{"lat":"-31.7128115","lng":"-65.0037515"},"address":"Joaquín V. Gonzalez"},"mobility":false,"additionalPlaces":0,"economicalIssues":true,"healthIssues":false,"observations":"","stuckedPeopleCount":"4","userId":{"$oid":"5ea7920e368159de7f06bd37"},"createdAt":{"$date":"2020-04-28T02:18:19.747Z"}}
{"_id":{"$oid":"5ea7928e3d1a5c41c3ce8e76"},"origin":{"province":{"id":"54","label":"Misiones"},"locality":"POSADAS","location":null,"address":"Blas Parera y Eva Peron"},"destination":{"province":{"id":"02","label":"Ciudad Autónoma de Buenos Aires"},"locality":"PARQUE AVELLANEDA","location":{"lat":"-34.63977657142857","lng":"-58.48004471428572"},"address":"Jose Enrique Rodo 3915"},"mobility":false,"additionalPlaces":0,"economicalIssues":true,"healthIssues":false,"observations":"En la direccion especificada (J E RODO 3915) tenemos nuestro vehiculo, de ahi nos movilizariamos a barrio ALMAGRO donde vivimos con mi mujer. ","stuckedPeopleCount":"2","userId":{"$oid":"5ea791a8368159de7f06bd24"},"createdAt":{"$date":"2020-04-28T02:18:54.214Z"}}
{"_id":{"$oid":"5ea793c43d1a5cff12ce8e77"},"origin":{"province":{"id":"86","label":"Santiago del Estero"},"locality":"LA BANDA","location":{"lat":"-27.7332003","lng":"-64.2349201"},"address":"24 de septiembre 173"},"destination":{"province":{"id":"06","label":"Buenos Aires"},"locality":"VILLA GESELL","location":null,"address":"36 y san clemente"},"mobility":false,"additionalPlaces":0,"economicalIssues":true,"healthIssues":false,"observations":"Somos tres un adulto y dos menores de edad.","userId":{"$oid":"5ea7925b368159de7f06bd43"},"createdAt":{"$date":"2020-04-28T02:24:04.944Z"}}
{"_id":{"$oid":"5ea793e13d1a5c0463ce8e78"},"origin":{"address":"Antenor Albarez","province":{"id":"86","label":"Santiago del Estero"},"locality":"TERMAS DE RIO HONDO"},"destination":{"province":{"id":"06","label":"Buenos Aires"},"locality":"JOSE MARMOL","location":{"lat":"-34.7894644","lng":"-58.3643927"},"address":"Bouchard "},"mobility":false,"additionalPlaces":0,"economicalIssues":true,"healthIssues":true,"observations":"Debo regresar para asistir a personas de riesgo . mi madre oncologica . mi abuelo no vidente . Mis hijas solas , me esperan  (soy sostén familiar) . Mi salud se deteriora , no puedo  donde me encuentro ,  acceder a las reglas básicas de higiene , mi anemia crónica se agudiza por la falta de alimentos y medicación , la desazón hace que mi sistema inmunolÓgico , baje . sin abrigo . AYUDA !! GRACIAS !!!","stuckedPeopleCount":"1","userId":{"$oid":"5ea7857f368159de7f06bafb"},"createdAt":{"$date":"2020-04-28T02:24:33.462Z"}}
{"_id":{"$oid":"5ea794ad3d1a5c5fdace8e7a"},"origin":{"province":{"id":"34","label":"Formosa"},"locality":"FORMOSA","location":{"lat":"-26.193784981632653","lng":"-58.17230796530612"},"address":"Sarmiento 1588"},"destination":{"province":{"id":"58","label":"Neuquén"},"locality":"RINCON DE LOS SAUCES","location":{"lat":"-37.3948717","lng":"-68.9220445"},"address":"Belgrano 1820"},"mobility":false,"additionalPlaces":0,"economicalIssues":true,"healthIssues":true,"observations":"Tengo mi madre de 89 años enferma con una sra de 76 años y con problemas economicos .","userId":{"$oid":"5ea792ad368159de7f06bd51"},"createdAt":{"$date":"2020-04-28T02:27:57.072Z"}}
{"_id":{"$oid":"5ea794f63d1a5cd7bfce8e7b"},"origin":{"province":{"id":"82","label":"Santa Fe"},"locality":"ROSARIO","location":{"lat":"-32.954742044897955","lng":"-60.64215482040816"},"address":"zeballos 1227"},"destination":{"province":{"id":"50","label":"Mendoza"},"locality":"GUAYMALLEN","location":{"lat":"-32.8912399","lng":"-68.8196926"},"address":"pascual toso"},"mobility":false,"additionalPlaces":0,"economicalIssues":true,"healthIssues":false,"observations":"necesito volver  urgente para estar con mi familia y por que aca no tengo sustento economico\n","stuckedPeopleCount":"1","userId":{"$oid":"5ea791da368159de7f06bd30"},"createdAt":{"$date":"2020-04-28T02:29:10.033Z"}}
{"_id":{"$oid":"5ea795023d1a5ca369ce8e7c"},"origin":{"province":{"id":"02","label":"Ciudad Autónoma de Buenos Aires"},"locality":"CIUDAD DE BUENOS AIRES","location":{"lat":"-34.6338087","lng":"-58.4022527"},"address":"Rafael Castillo"},"destination":{"province":{"id":"26","label":"Chubut"},"locality":"TRELEW","location":{"lat":"-43.2748083","lng":"-65.2600509"},"address":"Eduardo hann 1912"},"mobility":false,"additionalPlaces":0,"economicalIssues":true,"healthIssues":false,"observations":"Mi nena necesita vacunarse y no tengo la libreta ya que quedó en Chubut estoy hace un mes y medio con mis hijos y mi marido ya no tenemos más plata","stuckedPeopleCount":"4","userId":{"$oid":"5ea77783368159de7f06b898"},"createdAt":{"$date":"2020-04-28T02:29:22.417Z"}}
{"_id":{"$oid":"5ea796083d1a5c7139ce8e7d"},"origin":{"province":{"id":"26","label":"Chubut"},"locality":"COMODORO RIVADAVIA","location":{"lat":"-45.9366508","lng":"-67.564013"},"address":"Km 8"},"destination":{"province":{"id":"10","label":"Catamarca"},"locality":"SAN FERNANDO DEL VALLE DE CATAMARCA","location":{"lat":"-28.4690575","lng":"-65.7890724"},"address":"Camilo melet"},"mobility":false,"additionalPlaces":0,"economicalIssues":true,"healthIssues":false,"observations":"","stuckedPeopleCount":"3","userId":{"$oid":"5ea794cf368159de7f06bd9d"},"createdAt":{"$date":"2020-04-28T02:33:44.704Z"}}
{"_id":{"$oid":"5ea796363d1a5c58c6ce8e7e"},"origin":{"province":{"id":"58","label":"Neuquén"},"locality":"CHOS MALAL","location":{"lat":"-37.3708389","lng":"-70.2723856"},"address":"Calle Tucumán"},"destination":{"province":{"id":"38","label":"Jujuy"},"locality":"SAN SALVADOR DE JUJUY","location":null,"address":"Gobernador tello"},"mobility":false,"additionalPlaces":0,"economicalIssues":false,"healthIssues":false,"observations":"","stuckedPeopleCount":"1","userId":{"$oid":"5ea7957f368159de7f06bdbb"},"createdAt":{"$date":"2020-04-28T02:34:30.697Z"}}
{"_id":{"$oid":"5ea796c23d1a5c0027ce8e7f"},"origin":{"province":{"id":"30","label":"Entre Ríos"},"locality":"GUALEGUAYCHU","location":null,"address":"Neyra  e Ituzaingo"},"destination":{"province":{"id":"94","label":"Tierra del Fuego, Antártida e Islas del Atlántico Sur"},"locality":"USHUAIA","location":null,"address":"bouchard 777 -"},"mobility":true,"additionalPlaces":0,"economicalIssues":false,"healthIssues":false,"observations":"Estamos en Gualeguaychu, preciso volver a Ushuaia donde vivo, tengo mi mama de 93 años al cuidado de una señora en Ushuaia, ","stuckedPeopleCount":"2","userId":{"$oid":"5ea795fc368159de7f06bdcd"},"createdAt":{"$date":"2020-04-28T02:36:50.808Z"}}
{"_id":{"$oid":"5ea797ad3d1a5c3950ce8e80"},"origin":{"province":{"id":"38","label":"Jujuy"},"locality":"HUMAHUACA","location":{"lat":"-23.2117959","lng":"-65.3516441"},"address":"23 de Agosto"},"destination":{"province":{"id":"94","label":"Tierra del Fuego, Antártida e Islas del Atlántico Sur"},"locality":"USHUAIA","location":null,"address":"Alem 4421"},"mobility":false,"additionalPlaces":0,"economicalIssues":false,"healthIssues":false,"observations":"Me encuentro con mis tres niños, la mas pequeña es una bebe de 5 meses ","stuckedPeopleCount":"4","userId":{"$oid":"5ea79626368159de7f06bdd6"},"createdAt":{"$date":"2020-04-28T02:40:45.745Z"}}
{"_id":{"$oid":"5ea7982a3d1a5c8361ce8e81"},"origin":{"province":{"id":"54","label":"Misiones"},"locality":"POSADAS","location":null,"address":"Posada"},"destination":{"province":{"id":"06","label":"Buenos Aires"},"locality":"VILLA BALLESTER","location":null,"address":"Roca "},"mobility":false,"additionalPlaces":0,"economicalIssues":true,"healthIssues":false,"observations":"","userId":{"$oid":"5ea79736368159de7f06bdfd"},"createdAt":{"$date":"2020-04-28T02:42:50.950Z"}}
{"_id":{"$oid":"5ea798ce3d1a5c66eece8e82"},"origin":{"province":{"id":"06","label":"Buenos Aires"},"locality":"TANDIL","location":null,"address":"av peron 600"},"destination":{"province":{"id":"02","label":"Ciudad Autónoma de Buenos Aires"},"locality":"CIUDAD DE BUENOS AIRES","location":{"lat":"-34.610272","lng":"-58.424665"},"address":"gascon 200"},"mobility":false,"additionalPlaces":0,"economicalIssues":false,"healthIssues":false,"observations":"Soy trabajadora de sanidad y debo retornar a cumplir tareas. No puedo costear sola un viaje en remis.","userId":{"$oid":"5ea7942c368159de7f06bd89"},"createdAt":{"$date":"2020-04-28T02:45:34.670Z"}}
{"_id":{"$oid":"5ea799653d1a5c33d5ce8e83"},"origin":{"province":{"id":"78","label":"Santa Cruz"},"locality":"EL CALAFATE","location":null,"address":"Gunther Pluschow 9365"},"destination":{"province":{"id":"82","label":"Santa Fe"},"locality":"ROSARIO","location":{"lat":"-33.0586454","lng":"-60.6152615"},"address":"Av. Pellegrini 6060"},"mobility":false,"additionalPlaces":0,"economicalIssues":true,"healthIssues":false,"observations":"","stuckedPeopleCount":"1","userId":{"$oid":"5ea798cc368159de7f06be33"},"createdAt":{"$date":"2020-04-28T02:48:05.741Z"}}
{"_id":{"$oid":"5ea79a2b3d1a5cf6ccce8e84"},"origin":{"province":{"id":"46","label":"La Rioja"},"locality":"LA RIOJA","location":null,"address":"Av carlos saul menen ex laprida"},"destination":{"province":{"id":"38","label":"Jujuy"},"locality":"MONTERRICO","location":null,"address":"Felipe torres 959"},"mobility":false,"additionalPlaces":0,"economicalIssues":false,"healthIssues":false,"observations":"","stuckedPeopleCount":"1","userId":{"$oid":"5ea799a6368159de7f06be55"},"createdAt":{"$date":"2020-04-28T02:51:23.861Z"}}
{"_id":{"$oid":"5ea79c443d1a5c2227ce8e85"},"origin":{"province":{"id":"78","label":"Santa Cruz"},"locality":"PERITO MORENO","location":{"lat":"-46.5867633","lng":"-70.919917"},"address":"Pasaje ramon Lista 1345"},"destination":{"province":{"id":"06","label":"Buenos Aires"},"locality":"MERLO","location":null,"address":"Av.San Martín 5772"},"mobility":false,"additionalPlaces":0,"economicalIssues":false,"healthIssues":false,"observations":"","stuckedPeopleCount":"1","userId":{"$oid":"5ea79b32368159de7f06be8e"},"createdAt":{"$date":"2020-04-28T03:00:20.473Z"}}
{"_id":{"$oid":"5ea79d7c3d1a5c3b82ce8e87"},"origin":{"province":{"id":"78","label":"Santa Cruz"},"locality":"PERITO MORENO","location":{"lat":"-46.5867633","lng":"-70.919917"},"address":"Pasaje ramon Lista 1345"},"destination":{"province":{"id":"06","label":"Buenos Aires"},"locality":"MERLO","location":null,"address":"Av.San Martín 5772"},"mobility":false,"additionalPlaces":0,"economicalIssues":false,"healthIssues":false,"observations":"Estoy desde el 10 de marzo haciendo la cuarentena en la casa de mis tíos. El 4 de abril tenía mi vuelo con regreso a mi casa(buenos aires) el cual me lo cancelaron.. Cualquier tipo de ayuda es bienvenida ..  Sea en micro, remis o auto particular . Ayudo con los gastos .muchas Gracias","stuckedPeopleCount":"1","userId":{"$oid":"5ea79b32368159de7f06be8e"},"createdAt":{"$date":"2020-04-28T03:05:32.827Z"}}
{"_id":{"$oid":"5ea79d8c3d1a5c09ebce8e88"},"origin":{"province":{"id":"58","label":"Neuquén"},"locality":"LONCOPUE","location":null,"address":"San Martín s/n"},"destination":{"province":{"id":"22","label":"Chaco"},"locality":"CORZUELA","location":{"lat":"-26.9616951","lng":"-60.964675"},"address":"Tucumán 24"},"mobility":false,"additionalPlaces":0,"economicalIssues":true,"healthIssues":false,"observations":"","stuckedPeopleCount":"2","userId":{"$oid":"5ea79c91368159de7f06bebf"},"createdAt":{"$date":"2020-04-28T03:05:48.862Z"}}
{"_id":{"$oid":"5ea79db73d1a5c3598ce8e89"},"origin":{"province":{"id":"58","label":"Neuquén"},"locality":"PLAZA HUINCUL","location":null,"address":"Ruta 17 y Av San Martín"},"destination":{"province":{"id":"62","label":"Río Negro"},"locality":"EL BOLSON","location":{"lat":"-41.9492086","lng":"-71.5321879"},"address":"San Martín"},"mobility":true,"additionalPlaces":0,"economicalIssues":true,"healthIssues":false,"observations":"","stuckedPeopleCount":"1","userId":{"$oid":"5ea79b12368159de7f06be89"},"createdAt":{"$date":"2020-04-28T03:06:31.853Z"}}
{"_id":{"$oid":"5ea79dee3d1a5c7fb2ce8e8a"},"origin":{"province":{"id":"06","label":"Buenos Aires"},"locality":"MAR DEL PLATA","location":{"lat":"-38.009513","lng":"-57.54474028571428"},"address":"Gascon 1871"},"destination":{"province":{"id":"14","label":"Córdoba"},"locality":"VILLA CARLOS PAZ","location":{"lat":"-31.4622004","lng":"-64.5130061"},"address":"Barrio sol y rio"},"mobility":false,"additionalPlaces":0,"economicalIssues":true,"healthIssues":false,"observations":"","userId":{"$oid":"5ea77783368159de7f06b898"},"createdAt":{"$date":"2020-04-28T03:07:26.509Z"}}
{"_id":{"$oid":"5ea79def3d1a5c1749ce8e8b"},"origin":{"province":{"id":"06","label":"Buenos Aires"},"locality":"MAR DEL PLATA","location":{"lat":"-38.009513","lng":"-57.54474028571428"},"address":"Gascon 1871"},"destination":{"province":{"id":"14","label":"Córdoba"},"locality":"VILLA CARLOS PAZ","location":{"lat":"-31.4622004","lng":"-64.5130061"},"address":"Barrio sol y rio"},"mobility":false,"additionalPlaces":0,"economicalIssues":true,"healthIssues":false,"observations":"","userId":{"$oid":"5ea77783368159de7f06b898"},"createdAt":{"$date":"2020-04-28T03:07:27.907Z"}}
{"_id":{"$oid":"5ea79f6e3d1a5cff3bce8e8c"},"origin":{"province":{"id":"06","label":"Buenos Aires"},"locality":"SANTA TERESITA","location":null,"address":"Av. Costanera 1600"},"destination":{"province":{"id":"02","label":"Ciudad Autónoma de Buenos Aires"},"locality":"CONSTITUCION","location":{"lat":"-34.62224833469388","lng":"-58.38876363469388"},"address":"Virrey Cevallos 1179"},"mobility":false,"additionalPlaces":0,"economicalIssues":false,"healthIssues":false,"observations":"No tengo ropa de abrigo ni plata para pagar un taxi que cobra más de 10 mil pesos y el municipio de la Costa no pone micros.","stuckedPeopleCount":"1","userId":{"$oid":"5ea79c1a368159de7f06bead"},"createdAt":{"$date":"2020-04-28T03:13:50.621Z"}}
{"_id":{"$oid":"5ea79fa93d1a5c9550ce8e8d"},"origin":{"province":{"id":"06","label":"Buenos Aires"},"locality":"BAHIA BLANCA","location":{"lat":"-38.7151497","lng":"-62.2751895"},"address":"Patricios 100"},"destination":{"province":{"id":"14","label":"Córdoba"},"locality":"VILLA MARIA","location":{"lat":"-32.4033839","lng":"-63.2382072"},"address":"San Juan 1800"},"mobility":false,"additionalPlaces":0,"economicalIssues":true,"healthIssues":false,"observations":"Estoy varado aquí hace 40 días. Necesito volver con urgencia porque ya no me queda dinero para vivir acá. Gracias.","stuckedPeopleCount":"1","userId":{"$oid":"5ea79efd368159de7f06bf20"},"createdAt":{"$date":"2020-04-28T03:14:49.407Z"}}
{"_id":{"$oid":"5ea7a0b93d1a5ceca0ce8e8e"},"origin":{"province":{"id":"66","label":"Salta"},"locality":"SALTA","location":null,"address":"San luis 1253"},"destination":{"province":{"id":"54","label":"Misiones"},"locality":"ELDORADO","location":{"lat":"-26.3980053","lng":"-54.6239799"},"address":"Corrientes 779 "},"mobility":false,"additionalPlaces":0,"economicalIssues":true,"healthIssues":false,"observations":"","stuckedPeopleCount":"2","userId":{"$oid":"5ea79f99368159de7f06bf42"},"createdAt":{"$date":"2020-04-28T03:19:21.018Z"}}
{"_id":{"$oid":"5ea7a0cf3d1a5c0539ce8e8f"},"origin":{"province":{"id":"90","label":"Tucumán"},"locality":"SAN MIGUEL DE TUCUMAN","location":{"lat":"-26.8147377","lng":"-65.2390728"},"address":"Avenida Viamonte 500"},"destination":{"province":{"id":"62","label":"Río Negro"},"locality":"SAN CARLOS DE BARILOCHE","location":null,"address":"Avenida ejército del Norte 1000"},"mobility":false,"additionalPlaces":0,"economicalIssues":false,"healthIssues":false,"observations":"","userId":{"$oid":"5ea7a050368159de7f06bf5d"},"createdAt":{"$date":"2020-04-28T03:19:43.706Z"}}
{"_id":{"$oid":"5ea7a11f3d1a5c09b7ce8e90"},"origin":{"province":{"id":"38","label":"Jujuy"},"locality":"HUACALERA","location":{"lat":"-23.4627701","lng":"-65.3552874"},"address":"Villa Perchel"},"destination":{"province":{"id":"74","label":"San Luis"},"locality":"SAN LUIS","location":null,"address":"Bº Eva Perón"},"mobility":false,"additionalPlaces":0,"economicalIssues":true,"healthIssues":true,"observations":"Hola, la persona que se encuentra varada es mi mamá. Ella es pensionada, pensión mínima y viajo a Jujuy para ver a mi abuela. Esta en un pueblo donde se le complica ir a comprar también porque los negocios están en otros pueblos y el colectivo pasa solo 3 veces al día en horarios medio imposibles. Mi abuela esta acostumbrada a manejarse sola, pero una boca más es un problema. Saber que no hay grupos que hagan este recorrido Jujuy-San Luis nos quita las esperanzas, esperamos soluciones.","stuckedPeopleCount":"1","userId":{"$oid":"5ea79f2d368159de7f06bf27"},"createdAt":{"$date":"2020-04-28T03:21:03.566Z"}}
{"_id":{"$oid":"5ea7a1a43d1a5c3facce8e91"},"origin":{"province":{"id":"58","label":"Neuquén"},"locality":"PLAZA HUINCUL","location":null,"address":"Ruta 17 y Av San Martín"},"destination":{"province":{"id":"62","label":"Río Negro"},"locality":"EL BOLSON","location":{"lat":"-41.9492086","lng":"-71.5321879"},"address":"San Martín"},"mobility":false,"additionalPlaces":0,"economicalIssues":true,"healthIssues":false,"observations":"","stuckedPeopleCount":"1","userId":{"$oid":"5ea79b12368159de7f06be89"},"createdAt":{"$date":"2020-04-28T03:23:16.128Z"}}
{"_id":{"$oid":"5ea7a1ec3d1a5c4744ce8e92"},"origin":{"province":{"id":"90","label":"Tucumán"},"locality":"SAN MIGUEL DE TUCUMAN","location":{"lat":"-26.834242179591836","lng":"-65.22137792653061"},"address":"Lamadrid 1482"},"destination":{"province":{"id":"14","label":"Córdoba"},"locality":"RIO CUARTO","location":{"lat":"-33.12176599387755","lng":"-64.3469613"},"address":"Baigorria 93"},"mobility":false,"additionalPlaces":0,"economicalIssues":true,"healthIssues":false,"observations":"Vine por trabajo a Tucumán y me quedé VARADA en cuarentena desde el día que comenzó todo, sin trabajo y sin dinero. Me desalojan de la pensión porque no puedo pagar.","stuckedPeopleCount":"1","userId":{"$oid":"5ea7a074368159de7f06bf62"},"createdAt":{"$date":"2020-04-28T03:24:28.126Z"}}
{"_id":{"$oid":"5ea7a4443d1a5cdaa9ce8e94"},"origin":{"province":{"id":"14","label":"Córdoba"},"locality":"SAN FRANCISCO","location":null,"address":"Ingeniero 1161"},"destination":{"province":{"id":"78","label":"Santa Cruz"},"locality":"YACIMIENTOS RIO TURBIO","location":null,"address":"Pabellon 13"},"mobility":false,"additionalPlaces":0,"economicalIssues":true,"healthIssues":false,"observations":"","stuckedPeopleCount":"2","userId":{"$oid":"5ea77783368159de7f06b898"},"createdAt":{"$date":"2020-04-28T03:34:28.454Z"}}
{"_id":{"$oid":"5ea7a50a3d1a5c4ec8ce8e95"},"origin":{"province":{"id":"38","label":"Jujuy"},"locality":"HUMAHUACA","location":null,"address":"Uquía 4626"},"destination":{"province":{"id":"06","label":"Buenos Aires"},"locality":"GREGORIO DE LAFERRERE","location":null,"address":"Rocamora 4922"},"mobility":false,"additionalPlaces":0,"economicalIssues":true,"healthIssues":false,"observations":"Me encuentro varada sola, en un pueblo donde muy pocas veces hay señal telefónica. Necesito volver a mi casa con mi familia, soy una mujer de 46 años. ","stuckedPeopleCount":"1","userId":{"$oid":"5ea7a3a5368159de7f06bfd7"},"createdAt":{"$date":"2020-04-28T03:37:46.139Z"}}
{"_id":{"$oid":"5ea7a54c3d1a5c02e5ce8e96"},"origin":{"province":{"id":"06","label":"Buenos Aires"},"locality":"MAR DE AJO","location":null,"address":"Caseros 450"},"destination":{"province":{"id":"06","label":"Buenos Aires"},"locality":"MORENO","location":{"lat":"-34.627687","lng":"-58.7487956"},"address":"Dean Funes 4182"},"mobility":false,"additionalPlaces":0,"economicalIssues":true,"healthIssues":false,"observations":"Tengo tres hijos en casa y no pueden mantenerse económicamente.","stuckedPeopleCount":"1","userId":{"$oid":"5ea7a1fb368159de7f06bfa1"},"createdAt":{"$date":"2020-04-28T03:38:52.828Z"}}
{"_id":{"$oid":"5ea7a5533d1a5c19dece8e97"},"origin":{"province":{"id":"06","label":"Buenos Aires"},"locality":"FLORIDA OESTE","location":{"lat":"-34.54223285714286","lng":"-58.51774971428571"},"address":"Ombú 1330"},"destination":{"province":{"id":"74","label":"San Luis"},"locality":"MERLO","location":{"lat":"-32.3496633","lng":"-64.9869867"},"address":"El Molino 243"},"mobility":false,"additionalPlaces":"1","economicalIssues":false,"healthIssues":true,"observations":"Mi mamá tiene 71 , es diabética (con toda su medicación)y su compañera de viaje, tiene 66. Ambas están bien alojadas en la casa del hermano de la compañera desde el 21/3, pero quieren volver a sus hogares en Merlo.","stuckedPeopleCount":"2","userId":{"$oid":"5ea7a228368159de7f06bfa8"},"createdAt":{"$date":"2020-04-28T03:38:59.775Z"}}
{"_id":{"$oid":"5ea7a5803d1a5c6d3ece8e98"},"origin":{"province":{"id":"06","label":"Buenos Aires"},"locality":"FLORIDA","location":null,"address":"Calle Ombú"},"destination":{"province":{"id":"74","label":"San Luis"},"locality":"MERLO","location":null,"address":"Av. de La LUNA  150"},"mobility":false,"additionalPlaces":0,"economicalIssues":false,"healthIssues":true,"observations":"Estoy con una amiga. Ella es diabética, de 71 años.","stuckedPeopleCount":"2","userId":{"$oid":"5ea7a3a4368159de7f06bfd5"},"createdAt":{"$date":"2020-04-28T03:39:44.465Z"}}
{"_id":{"$oid":"5ea7a6813d1a5c0296ce8e99"},"origin":{"province":{"id":"14","label":"Córdoba"},"locality":"VILLA GENERAL BELGRANO","location":{"lat":"-31.9760212","lng":"-64.5478715"},"address":"El manzano 232"},"destination":{"province":{"id":"06","label":"Buenos Aires"},"locality":"NECOCHEA","location":{"lat":"-38.5557318","lng":"-58.7418205"},"address":"53-902"},"mobility":false,"additionalPlaces":0,"economicalIssues":false,"healthIssues":false,"observations":"","userId":{"$oid":"5ea7a612368159de7f06c02e"},"createdAt":{"$date":"2020-04-28T03:44:01.100Z"}}
{"_id":{"$oid":"5ea7a7333d1a5cc284ce8e9a"},"origin":{"province":{"id":"06","label":"Buenos Aires"},"locality":"SANTA CLARA DEL MAR","location":{"lat":"-37.8325777","lng":"-57.5072341"},"address":"San francisco 280"},"destination":{"province":{"id":"06","label":"Buenos Aires"},"locality":"BRAGADO","location":{"lat":"-35.12015673673469","lng":"-60.48743324285714"},"address":"Remedios de escalada 1575"},"mobility":false,"additionalPlaces":0,"economicalIssues":true,"healthIssues":false,"observations":"","stuckedPeopleCount":"1","userId":{"$oid":"5ea7a6a3368159de7f06c04c"},"createdAt":{"$date":"2020-04-28T03:46:59.585Z"}}
{"_id":{"$oid":"5ea7a7593d1a5c7372ce8e9b"},"origin":{"province":{"id":"86","label":"Santiago del Estero"},"locality":"SANTIAGO DEL ESTERO","location":null,"address":"Castiglione"},"destination":{"province":{"id":"14","label":"Córdoba"},"locality":"CORDOBA","location":{"lat":"-31.816558","lng":"-64.2837443"},"address":"Estrada "},"mobility":false,"additionalPlaces":0,"economicalIssues":true,"healthIssues":false,"observations":"Hola!! Necesito trasladarme de manera urgente a la provincia de Cordoba, a mi domicilio de residencia situado en calle Estrada (Barrio Nueva cordoba)  por problemas en el mismo de acuerdo a lo informado por el consorcio de mi edificio, debido a mi ausencia desde el 15 de marzo por la cuarentena preventiva y obligatoria. Ademas de eso me vine sin abrigos, sin dinero y sin mis materiales de estudio y ya empeze con clases online de mi facultad! Espero puedan ayudarme a regresar a casa! Gracias","stuckedPeopleCount":"1","userId":{"$oid":"5ea7a44c368159de7f06bff1"},"createdAt":{"$date":"2020-04-28T03:47:37.305Z"}}
{"_id":{"$oid":"5ea7a7c63d1a5cfdb4ce8e9c"},"origin":{"province":{"id":"26","label":"Chubut"},"locality":"TRELEW","location":{"lat":"-45.9246535","lng":"-67.5520042"},"address":"Almirante Brown 1 "},"destination":{"province":{"id":"02","label":"Ciudad Autónoma de Buenos Aires"},"locality":"SAN CRISTOBAL","location":{"lat":"-34.6228737","lng":"-58.3914101"},"address":"San Juan 1896"},"mobility":false,"additionalPlaces":0,"economicalIssues":false,"healthIssues":false,"observations":"","userId":{"$oid":"5ea79954368159de7f06be49"},"createdAt":{"$date":"2020-04-28T03:49:26.616Z"}}
{"_id":{"$oid":"5ea7a8323d1a5c74cace8e9d"},"origin":{"province":{"id":"14","label":"Córdoba"},"locality":"CORDOBA","location":{"lat":"-31.3969607","lng":"-64.2267109"},"address":"Del Carmen 671"},"destination":{"province":{"id":"22","label":"Chaco"},"locality":"RESISTENCIA","location":{"lat":"-27.4527171","lng":"-58.9846264"},"address":"Avenida 9 de Julio"},"mobility":false,"additionalPlaces":0,"economicalIssues":false,"healthIssues":false,"observations":"Por favor, de ser posible, alguien que me ayude para llegar a Resistencia. Gracias.","stuckedPeopleCount":"1","userId":{"$oid":"5ea7a667368159de7f06c039"},"createdAt":{"$date":"2020-04-28T03:51:14.412Z"}}
{"_id":{"$oid":"5ea7a8413d1a5c6412ce8e9e"},"origin":{"province":{"id":"14","label":"Córdoba"},"locality":"VILLA GENERAL BELGRANO","location":{"lat":"-31.9760212","lng":"-64.5478715"},"address":"El manzano 32"},"destination":{"province":{"id":"06","label":"Buenos Aires"},"locality":"NECOCHEA","location":{"lat":"-38.5557318","lng":"-58.7418205"},"address":"53 902"},"mobility":false,"additionalPlaces":0,"economicalIssues":false,"healthIssues":false,"observations":"","userId":{"$oid":"5ea7a668368159de7f06c03b"},"createdAt":{"$date":"2020-04-28T03:51:29.619Z"}}
{"_id":{"$oid":"5ea7a8ac3d1a5c8ae0ce8e9f"},"origin":{"province":{"id":"62","label":"Río Negro"},"locality":"SAN CARLOS DE BARILOCHE","location":null,"address":"Mitre"},"destination":{"province":{"id":"78","label":"Santa Cruz"},"locality":"CALETA OLIVIA","location":{"lat":"-46.4586094","lng":"-67.53451341666667"},"address":"primera junta 141"},"mobility":false,"additionalPlaces":0,"economicalIssues":false,"healthIssues":false,"observations":"","userId":{"$oid":"5ea7a77b368159de7f06c069"},"createdAt":{"$date":"2020-04-28T03:53:16.711Z"}}
{"_id":{"$oid":"5ea7a8b23d1a5c5372ce8ea0"},"origin":{"province":{"id":"14","label":"Córdoba"},"locality":"VILLA GENERAL BELGRANO","location":{"lat":"-31.9760212","lng":"-64.5478715"},"address":"El manzano 32"},"destination":{"province":{"id":"06","label":"Buenos Aires"},"locality":"NECOCHEA","location":{"lat":"-38.5557318","lng":"-58.7418205"},"address":"53 902"},"mobility":false,"additionalPlaces":0,"economicalIssues":false,"healthIssues":false,"observations":"","stuckedPeopleCount":"1","userId":{"$oid":"5ea7a668368159de7f06c03b"},"createdAt":{"$date":"2020-04-28T03:53:22.559Z"}}
{"_id":{"$oid":"5ea7a8e53d1a5c66cbce8ea1"},"origin":{"province":{"id":"70","label":"San Juan"},"locality":"RAWSON","location":{"lat":"-31.5867793","lng":"-68.4731325"},"address":"florida y calle vieja"},"destination":{"province":{"id":"78","label":"Santa Cruz"},"locality":"RIO GALLEGOS","location":{"lat":"-51.6392256","lng":"-69.192932"},"address":"cecilia grierson 661"},"mobility":false,"additionalPlaces":"","economicalIssues":true,"healthIssues":false,"observations":"estamos varados desde el 18/03. teniamos pasajes de vuelta en latam para el 25/03 y me fue cancelado, luego  la empresa cerro sus vuelos por todo el mes de abril y a partir del 1/5 fui reubicado el cual me fue cancelado nuevamente hasta nuevo aviso., lo cual me genero muchos mas  gastos inesperados soy jubilado  y nos urge regresar a nuestro hogar dado que mi situacion economica es caotica ","stuckedPeopleCount":"3","userId":{"$oid":"5ea79c59368159de7f06beb7"},"createdAt":{"$date":"2020-04-28T03:54:13.286Z"}}
{"_id":{"$oid":"5ea7a9293d1a5c48e0ce8ea2"},"origin":{"province":{"id":"26","label":"Chubut"},"locality":"PUERTO MADRYN","location":{"lat":"-42.7805806","lng":"-65.0510287"},"address":"San Martin y Estivariz"},"destination":{"province":{"id":"06","label":"Buenos Aires"},"locality":"QUILMES OESTE","location":null,"address":"Olavarria 355"},"mobility":false,"additionalPlaces":"","economicalIssues":true,"healthIssues":true,"observations":"Problemas cardiacos con tratamiento y meficacion controlada todos los meses.Tratamiento con psiquiatra por depresion y tsmbien controlada mensualmente.","stuckedPeopleCount":"1","userId":{"$oid":"5ea7a765368159de7f06c065"},"createdAt":{"$date":"2020-04-28T03:55:21.810Z"}}
{"_id":{"$oid":"5ea7a92d3d1a5c957ece8ea3"},"origin":{"province":{"id":"66","label":"Salta"},"locality":"SALTA","location":null,"address":"Colombia 1890"},"destination":{"province":{"id":"06","label":"Buenos Aires"},"locality":"MERLO","location":{"lat":"-34.700297","lng":"-58.6723067"},"address":"Sivori 2448"},"mobility":true,"additionalPlaces":0,"economicalIssues":true,"healthIssues":false,"observations":"El permiso bacional y certificado medico ","stuckedPeopleCount":"1","route":"34","controls":"Te controlan la declaración jurada y barbijos","userId":{"$oid":"5ea7a7b0368159de7f06c075"},"createdAt":{"$date":"2020-04-28T03:55:25.475Z"}}
{"_id":{"$oid":"5ea7aa133d1a5c6e81ce8ea4"},"origin":{"province":{"id":"02","label":"Ciudad Autónoma de Buenos Aires"},"locality":"CIUDAD DE BUENOS AIRES","location":null,"address":"Estados Unidos 3661"},"destination":{"province":{"id":"62","label":"Río Negro"},"locality":"VILLA REGINA","location":{"lat":"-39.0969008","lng":"-67.0799727"},"address":"España 75 7 B"},"mobility":false,"additionalPlaces":0,"economicalIssues":true,"healthIssues":false,"observations":"","stuckedPeopleCount":"1","userId":{"$oid":"5ea7a93c368159de7f06c0bb"},"createdAt":{"$date":"2020-04-28T03:59:15.559Z"}}
{"_id":{"$oid":"5ea7aaea3d1a5cca91ce8ea5"},"origin":{"province":{"id":"82","label":"Santa Fe"},"locality":"ROSARIO","location":{"lat":"-32.96109127755102","lng":"-60.646670146938774"},"address":"Cerrito 1423 "},"destination":{"province":{"id":"30","label":"Entre Ríos"},"locality":"FEDERACION","location":{"lat":"-30.9944252","lng":"-57.9212945"},"address":"Mandisovi 1576"},"mobility":false,"additionalPlaces":0,"economicalIssues":true,"healthIssues":false,"observations":"","stuckedPeopleCount":"1","userId":{"$oid":"5ea7aa3d368159de7f06c0e1"},"createdAt":{"$date":"2020-04-28T04:02:50.817Z"}}
{"_id":{"$oid":"5ea7ab423d1a5c5454ce8ea6"},"origin":{"province":{"id":"30","label":"Entre Ríos"},"locality":"CONCORDIA","location":null,"address":"Espejo 375"},"destination":{"province":{"id":"30","label":"Entre Ríos"},"locality":"VIALE","location":null,"address":"Rómulo Beltzer 30"},"mobility":false,"additionalPlaces":0,"economicalIssues":false,"healthIssues":true,"observations":"Tengo q hacerme un chequeo a causa de tratamiento de cáncer de mama y tengo mi médico en mi ciudad ","stuckedPeopleCount":"1","userId":{"$oid":"5ea7a870368159de7f06c097"},"createdAt":{"$date":"2020-04-28T04:04:18.460Z"}}
{"_id":{"$oid":"5ea7ab7e3d1a5c8446ce8ea7"},"origin":{"province":{"id":"06","label":"Buenos Aires"},"locality":"LA PLATA","location":{"lat":"-34.9003122","lng":"-57.96702198333333"},"address":"Calle 6 y 41"},"destination":{"province":{"id":"06","label":"Buenos Aires"},"locality":"TRENQUE LAUQUEN","location":{"lat":"-35.9579161625","lng":"-62.7494881"},"address":"Leloir 106"},"mobility":false,"additionalPlaces":0,"economicalIssues":true,"healthIssues":false,"observations":"","stuckedPeopleCount":"1","userId":{"$oid":"5ea7a946368159de7f06c0c0"},"createdAt":{"$date":"2020-04-28T04:05:18.754Z"}}
{"_id":{"$oid":"5ea7ac143d1a5cfa4bce8ea8"},"origin":{"province":{"id":"14","label":"Córdoba"},"locality":"VILLA ALLENDE","location":{"lat":"-31.2808576","lng":"-64.3020471"},"address":"Condor bajo"},"destination":{"province":{"id":"78","label":"Santa Cruz"},"locality":"CALETA OLIVIA","location":{"lat":"-46.449397649999995","lng":"-67.50778170491957"},"address":"Barrio miramar"},"mobility":false,"additionalPlaces":0,"economicalIssues":true,"healthIssues":false,"observations":"Mi hermana es jubilada. Esta en cordoba desde el 14/03. Tenia pasaje aereo pero como 3 veces fue cancelado. Necesita volver a su hogar","stuckedPeopleCount":"1","userId":{"$oid":"5ea7aa6b368159de7f06c0e8"},"createdAt":{"$date":"2020-04-28T04:07:48.284Z"}}
{"_id":{"$oid":"5ea7ac273d1a5c7179ce8ea9"},"origin":{"province":{"id":"06","label":"Buenos Aires"},"locality":"BERAZATEGUI","location":{"lat":"-34.7641265","lng":"-58.2084227"},"address":"berazategui"},"destination":{"province":{"id":"58","label":"Neuquén"},"locality":"NEUQUEN","location":null,"address":"neuquen"},"mobility":false,"additionalPlaces":0,"economicalIssues":false,"healthIssues":false,"observations":"soy de buenos aires y tengo que ir a neuquen a buscar a mi hijo","stuckedPeopleCount":"1","userId":{"$oid":"5ea7aa75368159de7f06c0eb"},"createdAt":{"$date":"2020-04-28T04:08:07.689Z"}}
{"_id":{"$oid":"5ea7ac9f3d1a5c06c9ce8eaa"},"origin":{"province":{"id":"06","label":"Buenos Aires"},"locality":"CARMEN DE PATAGONES","location":null,"address":"Estados Unidos, pasaje 3, casa 95"},"destination":{"province":{"id":"02","label":"Ciudad Autónoma de Buenos Aires"},"locality":"BOEDO","location":null,"address":"Caseros al 4000"},"mobility":false,"additionalPlaces":0,"economicalIssues":false,"healthIssues":false,"observations":"","stuckedPeopleCount":"1","userId":{"$oid":"5ea7ac18368159de7f06c127"},"createdAt":{"$date":"2020-04-28T04:10:07.925Z"}}
{"_id":{"$oid":"5ea7ad293d1a5caaf5ce8eab"},"origin":{"province":{"id":"02","label":"Ciudad Autónoma de Buenos Aires"},"locality":"CIUDAD DE BUENOS AIRES","location":null,"address":"Almagro"},"destination":{"province":{"id":"06","label":"Buenos Aires"},"locality":"MAR DEL PLATA","location":null,"address":"Zona Güemes"},"mobility":true,"additionalPlaces":0,"economicalIssues":false,"healthIssues":false,"observations":"Yo tengo dirección de Mar del Plata en el DNI, pero además saqué un permiso de circulación de 24 hs de la provincia, por atención a personas mayores (Mi madre)\n\nhttps://permisostransito.mseg.gba.gov.ar/?fbclid=IwAR2JdZauL_1m266nRJpIDL3_nhODdoumvrukTgV25Zc8oEsqGanaOTiCn_o\n\nÁnimo y suerte! espero haber ayudado en algo con mi experiencia.","stuckedPeopleCount":"1","route":"Ruta 2","controls":"Ruta 2, salimos a las 4:30  de Bs As con el taxista, no hubo controles hasta el retén de entrada a MdP, en el km 391, en donde nos pidieron los permisos. El taxi de capital no puede levantar pasajeros en Mar del Plata, pero sí si estos de acercan a ese retén de la ruta, ahí los puede levantar legalmente.","userId":{"$oid":"5ea7ab27368159de7f06c101"},"createdAt":{"$date":"2020-04-28T04:12:25.049Z"}}
{"_id":{"$oid":"5ea7ad663d1a5c91dbce8eac"},"origin":{"province":{"id":"06","label":"Buenos Aires"},"locality":"LA PLATA","location":null,"address":"23 38 y 39"},"destination":{"province":{"id":"74","label":"San Luis"},"locality":"MERLO","location":null,"address":"Laurel 285"},"mobility":false,"additionalPlaces":0,"economicalIssues":false,"healthIssues":false,"observations":"Tengo a mi madre de 88 años a mi cargo y me necesita","stuckedPeopleCount":"1","userId":{"$oid":"5ea7acac368159de7f06c140"},"createdAt":{"$date":"2020-04-28T04:13:26.767Z"}}
{"_id":{"$oid":"5ea7aed03d1a5c2c4bce8ead"},"origin":{"province":{"id":"54","label":"Misiones"},"locality":"PUERTO IGUAZU","location":null,"address":"Rua guarandi. Caraguatatuba . São Paulo. Brasil"},"destination":{"province":{"id":"22","label":"Chaco"},"locality":"RESISTENCIA","location":null,"address":"Obligado 1665"},"mobility":false,"additionalPlaces":0,"economicalIssues":true,"healthIssues":false,"observations":"Hola, mi nombre es Andrea y me encuentro en Caraguatatuba ,Brasil. Estaba viajando desde diciembre vendiendo arte, lo cual se complico con esta situación. Coloqué que mi ubicación es misiones para conseguir completar el formulario. Gracias ","stuckedPeopleCount":"1","userId":{"$oid":"5ea7ad75368159de7f06c15a"},"createdAt":{"$date":"2020-04-28T04:19:28.997Z"}}
{"_id":{"$oid":"5ea7aef53d1a5c7af5ce8eae"},"origin":{"province":{"id":"50","label":"Mendoza"},"locality":"PAREDITAS","location":null,"address":"Barrio cruz del sur s/n"},"destination":{"province":{"id":"14","label":"Córdoba"},"locality":"VILLA DE LAS ROSAS","location":null,"address":"René Favaloro s/n"},"mobility":false,"additionalPlaces":0,"economicalIssues":false,"healthIssues":false,"observations":"","stuckedPeopleCount":"1","userId":{"$oid":"5ea7ae52368159de7f06c178"},"createdAt":{"$date":"2020-04-28T04:20:05.656Z"}}
{"_id":{"$oid":"5ea7af1e3d1a5c917ece8eaf"},"origin":{"province":{"id":"06","label":"Buenos Aires"},"locality":"MAR DEL PLATA","location":{"lat":"-37.9652248","lng":"-57.5408696"},"address":"Avenida felix u camet. Barrio camet"},"destination":{"province":{"id":"06","label":"Buenos Aires"},"locality":"GREGORIO DE LAFERRERE","location":{"lat":"-34.7224208","lng":"-58.6064017"},"address":"Sudamerica 2500"},"mobility":false,"additionalPlaces":0,"economicalIssues":true,"healthIssues":false,"observations":"","stuckedPeopleCount":"1","userId":{"$oid":"5ea7abc5368159de7f06c11b"},"createdAt":{"$date":"2020-04-28T04:20:46.218Z"}}
{"_id":{"$oid":"5ea7af863d1a5c164bce8eb0"},"origin":{"province":{"id":"62","label":"Río Negro"},"locality":"SAN CARLOS DE BARILOCHE","location":null,"address":"Lanin 3950 km4"},"destination":{"province":{"id":"10","label":"Catamarca"},"locality":"SAN ISIDRO","location":null,"address":"Tomas vergara s/n el bañado valle viejo "},"mobility":false,"additionalPlaces":0,"economicalIssues":true,"healthIssues":false,"observations":"Esta solo y se queda sin dinero para sobrevivir en otra provincia ","userId":{"$oid":"5ea7aeab368159de7f06c183"},"createdAt":{"$date":"2020-04-28T04:22:30.723Z"}}
{"_id":{"$oid":"5ea7b0f93d1a5cf541ce8eb1"},"origin":{"province":{"id":"14","label":"Córdoba"},"locality":"CORDOBA","location":{"lat":"-31.410378868421052","lng":"-64.16446193684212"},"address":"Roma 460"},"destination":{"province":{"id":"54","label":"Misiones"},"locality":"APOSTOLES","location":null,"address":"9 de julio 1560"},"mobility":false,"additionalPlaces":0,"economicalIssues":true,"healthIssues":false,"observations":"","stuckedPeopleCount":"2","userId":{"$oid":"5ea7b029368159de7f06c1bd"},"createdAt":{"$date":"2020-04-28T04:28:41.307Z"}}
{"_id":{"$oid":"5ea7b1bc3d1a5cece4ce8eb2"},"origin":{"province":{"id":"50","label":"Mendoza"},"locality":"SAN RAFAEL","location":{"lat":"-34.609011222448984","lng":"-68.33939266530612"},"address":"Lavalle 325 "},"destination":{"province":{"id":"42","label":"La Pampa"},"locality":"EDUARDO CASTEX","location":null,"address":"Bottino 635"},"mobility":false,"additionalPlaces":0,"economicalIssues":true,"healthIssues":false,"observations":"","stuckedPeopleCount":"1","userId":{"$oid":"5ea7b049368159de7f06c1c3"},"createdAt":{"$date":"2020-04-28T04:31:56.937Z"}}
{"_id":{"$oid":"5ea7b2853d1a5c41d3ce8eb3"},"origin":{"province":{"id":"06","label":"Buenos Aires"},"locality":"SANTA CLARA DEL MAR","location":{"lat":"-37.830867","lng":"-57.5150586"},"address":"montreal"},"destination":{"province":{"id":"06","label":"Buenos Aires"},"locality":"TEMPERLEY","location":{"lat":"-34.7714781","lng":"-58.3813217"},"address":"pasco al 2000"},"mobility":false,"additionalPlaces":0,"economicalIssues":false,"healthIssues":false,"observations":"","stuckedPeopleCount":"3","userId":{"$oid":"5ea7b1d4368159de7f06c1fc"},"createdAt":{"$date":"2020-04-28T04:35:17.320Z"}}
{"_id":{"$oid":"5ea7b37b3d1a5cb0f4ce8eb4"},"origin":{"province":{"id":"06","label":"Buenos Aires"},"locality":"CARMEN DE PATAGONES","location":{"lat":"-39.9157484","lng":"-62.614597"},"address":"Villalonga"},"destination":{"province":{"id":"34","label":"Formosa"},"locality":"FORMOSA","location":{"lat":"-25.7357712","lng":"-59.1022694"},"address":"Barrio juan Manuel de rosas"},"mobility":false,"additionalPlaces":"0","economicalIssues":true,"healthIssues":false,"observations":"Estoy varado sin trabajo sin dinero acá nesecito viajar urgente alguna información o contactos para volver me ayudaría compartiría los gastos si no es tan caro desde ya gracias  ","stuckedPeopleCount":"0","userId":{"$oid":"5ea77783368159de7f06b898"},"createdAt":{"$date":"2020-04-28T04:39:23.357Z"}}
{"_id":{"$oid":"5ea7b3883d1a5c30b1ce8eb5"},"origin":{"province":{"id":"70","label":"San Juan"},"locality":"RIVADAVIA","location":{"lat":"-31.5368509","lng":"-68.5910929480149"},"address":"Lavalle 7468"},"destination":{"province":{"id":"90","label":"Tucumán"},"locality":"ALDERETES","location":null,"address":"Capital"},"mobility":false,"additionalPlaces":0,"economicalIssues":true,"healthIssues":true,"observations":"","stuckedPeopleCount":"7","userId":{"$oid":"5ea7b241368159de7f06c209"},"createdAt":{"$date":"2020-04-28T04:39:36.738Z"}}
{"_id":{"$oid":"5ea7b3893d1a5c3653ce8eb6"},"origin":{"province":{"id":"94","label":"Tierra del Fuego, Antártida e Islas del Atlántico Sur"},"locality":"RIO GRANDE","location":null,"address":"Belisario Roldán 1447"},"destination":{"province":{"id":"50","label":"Mendoza"},"locality":"GUAYMALLEN","location":{"lat":"-32.9126652","lng":"-68.8001807"},"address":"Azcuénaga 605"},"mobility":false,"additionalPlaces":0,"economicalIssues":false,"healthIssues":false,"observations":"Estoy con mí nieta discapacitada se alimenta por vía gastrointestinal y toma medicamentos anticonvulsivos....nesecitamos volver urgente a Mendoza","stuckedPeopleCount":"3","userId":{"$oid":"5ea7b18d368159de7f06c1f0"},"createdAt":{"$date":"2020-04-28T04:39:37.267Z"}}
{"_id":{"$oid":"5ea7b47a3d1a5c8c25ce8eb7"},"origin":{"province":{"id":"58","label":"Neuquén"},"locality":"RINCON DE LOS SAUCES","location":null,"address":"Chosmalal"},"destination":{"province":{"id":"50","label":"Mendoza"},"locality":"SAN RAFAEL","location":{"lat":"-34.6190116","lng":"-68.3428064"},"address":"Saavedra "},"mobility":false,"additionalPlaces":0,"economicalIssues":true,"healthIssues":false,"observations":"No tiene trabajo ni medios economicos","stuckedPeopleCount":"1","userId":{"$oid":"5ea7b3a8368159de7f06c242"},"createdAt":{"$date":"2020-04-28T04:43:38.583Z"}}
{"_id":{"$oid":"5ea7b47c3d1a5c6ebfce8eb8"},"origin":{"province":{"id":"58","label":"Neuquén"},"locality":"RINCON DE LOS SAUCES","location":null,"address":"Chosmalal"},"destination":{"province":{"id":"50","label":"Mendoza"},"locality":"SAN RAFAEL","location":{"lat":"-34.6190116","lng":"-68.3428064"},"address":"Saavedra "},"mobility":false,"additionalPlaces":0,"economicalIssues":true,"healthIssues":false,"observations":"No tiene trabajo ni medios economicos","stuckedPeopleCount":"1","userId":{"$oid":"5ea7b3a8368159de7f06c242"},"createdAt":{"$date":"2020-04-28T04:43:40.501Z"}}
{"_id":{"$oid":"5ea7b6593d1a5c4371ce8eb9"},"origin":{"province":{"id":"06","label":"Buenos Aires"},"locality":"LA PLATA","location":{"lat":"-34.8663065","lng":"-58.042132"},"address":"city bell"},"destination":{"province":{"id":"74","label":"San Luis"},"locality":"MERLO","location":{"lat":"-32.342558","lng":"-65.0136903"},"address":"merlo"},"mobility":false,"additionalPlaces":0,"economicalIssues":false,"healthIssues":false,"observations":"","stuckedPeopleCount":"1","userId":{"$oid":"5ea7b5a1368159de7f06c27f"},"createdAt":{"$date":"2020-04-28T04:51:37.165Z"}}
{"_id":{"$oid":"5ea7b7bc3d1a5c3828ce8eba"},"origin":{"province":{"id":"06","label":"Buenos Aires"},"locality":"JOSE MARIA EZEIZA","location":null,"address":"Progresó 1620"},"destination":{"province":{"id":"22","label":"Chaco"},"locality":"VILLA ANGELA","location":null,"address":"Montiagudo 1900"},"mobility":false,"additionalPlaces":0,"economicalIssues":true,"healthIssues":false,"observations":"","stuckedPeopleCount":"1","userId":{"$oid":"5ea77783368159de7f06b898"},"createdAt":{"$date":"2020-04-28T04:57:32.257Z"}}
{"_id":{"$oid":"5ea7b8473d1a5c3f50ce8ebb"},"origin":{"province":{"id":"06","label":"Buenos Aires"},"locality":"AEROPUERTO INTERNACIONAL EZEIZA","location":null,"address":"Progresó 1620"},"destination":{"province":{"id":"22","label":"Chaco"},"locality":"VILLA ANGELA","location":null,"address":"Montiagudo 1900"},"mobility":false,"additionalPlaces":0,"economicalIssues":true,"healthIssues":false,"observations":"","stuckedPeopleCount":"1","userId":{"$oid":"5ea77783368159de7f06b898"},"createdAt":{"$date":"2020-04-28T04:59:51.163Z"}}
{"_id":{"$oid":"5ea7b8493d1a5cf22fce8ebc"},"origin":{"province":{"id":"06","label":"Buenos Aires"},"locality":"AEROPUERTO INTERNACIONAL EZEIZA","location":null,"address":"Progresó 1620"},"destination":{"province":{"id":"22","label":"Chaco"},"locality":"VILLA ANGELA","location":null,"address":"Montiagudo 1900"},"mobility":false,"additionalPlaces":0,"economicalIssues":true,"healthIssues":false,"observations":"","stuckedPeopleCount":"1","userId":{"$oid":"5ea77783368159de7f06b898"},"createdAt":{"$date":"2020-04-28T04:59:53.067Z"}}
{"_id":{"$oid":"5ea7b84a3d1a5c034ace8ebd"},"origin":{"province":{"id":"06","label":"Buenos Aires"},"locality":"AEROPUERTO INTERNACIONAL EZEIZA","location":null,"address":"Progresó 1620"},"destination":{"province":{"id":"22","label":"Chaco"},"locality":"VILLA ANGELA","location":null,"address":"Montiagudo 1900"},"mobility":false,"additionalPlaces":0,"economicalIssues":true,"healthIssues":false,"observations":"","stuckedPeopleCount":"1","userId":{"$oid":"5ea77783368159de7f06b898"},"createdAt":{"$date":"2020-04-28T04:59:54.567Z"}}
{"_id":{"$oid":"5ea7baad3d1a5c36a0ce8ebe"},"origin":{"province":{"id":"46","label":"La Rioja"},"locality":"OLTA","location":null,"address":"Avellaneda 215"},"destination":{"province":{"id":"78","label":"Santa Cruz"},"locality":"CALETA OLIVIA","location":null,"address":"Las Lilas 1836"},"mobility":false,"additionalPlaces":0,"economicalIssues":false,"healthIssues":false,"observations":"","stuckedPeopleCount":"3","userId":{"$oid":"5ea7ba19368159de7f06c315"},"createdAt":{"$date":"2020-04-28T05:10:05.967Z"}}
{"_id":{"$oid":"5ea7be103d1a5c198fce8ebf"},"origin":{"province":{"id":"90","label":"Tucumán"},"locality":"AGUILARES","location":null,"address":"Granadero barrio 25 mayo"},"destination":{"province":{"id":"06","label":"Buenos Aires"},"locality":"MERLO","location":{"lat":"-34.6798884","lng":"-58.7603388"},"address":"Vidt 561"},"mobility":false,"additionalPlaces":0,"economicalIssues":true,"healthIssues":true,"observations":"","stuckedPeopleCount":"1","userId":{"$oid":"5ea77783368159de7f06b898"},"createdAt":{"$date":"2020-04-28T05:24:32.801Z"}}
{"_id":{"$oid":"5ea7be4b3d1a5cb7b6ce8ec0"},"origin":{"province":{"id":"14","label":"Córdoba"},"locality":"CORDOBA","location":null,"address":"Santa rosa 1307"},"destination":{"province":{"id":"78","label":"Santa Cruz"},"locality":"RIO GALLEGOS","location":null,"address":"Óscar smith 624"},"mobility":false,"additionalPlaces":0,"economicalIssues":true,"healthIssues":false,"observations":"Me encuentro en ciudad de Córdoba con destino a río gallegos desde marzo, me robaron el documento y tuve que tramitarlo con domicilio en Córdoba y tengo que volver a río gallegos por que estoy en una pensión esperando poder volver sin ingresos ","stuckedPeopleCount":"1","userId":{"$oid":"5ea7bd77368159de7f06c37f"},"createdAt":{"$date":"2020-04-28T05:25:31.275Z"}}
{"_id":{"$oid":"5ea7c0033d1a5cd5c0ce8ec1"},"origin":{"province":{"id":"14","label":"Córdoba"},"locality":"MORTEROS","location":{"lat":"-30.7214309","lng":"-62.0074046"},"address":"serafin resta"},"destination":{"province":{"id":"82","label":"Santa Fe"},"locality":"GRANADERO BAIGORRIA","location":{"lat":"-32.8547765","lng":"-60.7074143"},"address":"asda"},"mobility":true,"additionalPlaces":0,"economicalIssues":true,"healthIssues":true,"observations":"","stuckedPeopleCount":"5","route":"10 - 19 - autopista santa fe","userId":{"$oid":"5ea7ba40368159de7f06c31b"},"createdAt":{"$date":"2020-04-28T05:32:51.529Z"}}
{"_id":{"$oid":"5ea7c4503d1a5c70b3ce8ec2"},"origin":{"province":{"id":"14","label":"Córdoba"},"locality":"CORDOBA","location":null,"address":"A1v ejercito argentino "},"destination":{"province":{"id":"86","label":"Santiago del Estero"},"locality":"SANTIAGO DEL ESTERO","location":null,"address":"Arodo avila "},"mobility":true,"additionalPlaces":"1","economicalIssues":false,"healthIssues":false,"observations":"","userId":{"$oid":"5ea7c2f0368159de7f06c42c"},"createdAt":{"$date":"2020-04-28T05:51:12.495Z"}}
{"_id":{"$oid":"5ea7c5443d1a5c694ece8ec3"},"origin":{"province":{"id":"30","label":"Entre Ríos"},"locality":"PARANA","location":null,"address":"J. M. Garayalde 2075"},"destination":{"province":{"id":"22","label":"Chaco"},"locality":"RESISTENCIA","location":{"lat":"-27.45136161632653","lng":"-58.977703740816324"},"address":"Av. Paraguay 510"},"mobility":false,"additionalPlaces":0,"economicalIssues":true,"healthIssues":false,"observations":"No tengo movilidad pero si puedo pagar un taxi o remis compartido que salga desde Parana\nESTOY EN CUARENTENA DESDE EL 17 DE MARZO SIN SALIR A NINGUN LADO, ESTOY SANA, BUSCO PERSONA QUE QUIERA IR A CHACO O AL NORDESTE ","stuckedPeopleCount":"1","userId":{"$oid":"5ea7c3d8368159de7f06c447"},"createdAt":{"$date":"2020-04-28T05:55:16.678Z"}}
{"_id":{"$oid":"5ea7c62e3d1a5c0ce6ce8ec5"},"origin":{"province":{"id":"30","label":"Entre Ríos"},"locality":"PARANA","location":null,"address":"J. M. Garayalde 2075"},"destination":{"province":{"id":"22","label":"Chaco"},"locality":"RESISTENCIA","location":{"lat":"-27.45136161632653","lng":"-58.977703740816324"},"address":"Av. Paraguay 510"},"mobility":false,"additionalPlaces":0,"economicalIssues":true,"healthIssues":false,"observations":"No tengo movilidad pero si puedo pagar un taxi o remis compartido que salga desde Parana\nESTOY EN CUARENTENA DESDE EL 17 DE MARZO SIN SALIR A NINGUN LADO, ESTOY SANA, BUSCO PERSONA QUE QUIERA IR A CHACO O AL NORDESTE ","stuckedPeopleCount":"1","userId":{"$oid":"5ea7c3d8368159de7f06c447"},"createdAt":{"$date":"2020-04-28T05:59:10.634Z"}}
{"_id":{"$oid":"5ea7d1993d1a5c3c7ace8ec6"},"origin":{"province":{"id":"54","label":"Misiones"},"locality":"PUERTO IGUAZU","location":{"lat":"-25.5998898","lng":"-54.5699706"},"address":"fray mameto esquiu "},"destination":{"province":{"id":"78","label":"Santa Cruz"},"locality":"RIO GALLEGOS","location":{"lat":"-51.6106409","lng":"-69.2357149"},"address":"alberdi"},"mobility":false,"additionalPlaces":"0","economicalIssues":true,"healthIssues":true,"observations":"Estamos pagando alquiler por dia hace 50 dias. Tomamos medicación con receta archivada. ","stuckedPeopleCount":"2","userId":{"$oid":"5ea7d000368159de7f06c5ba"},"createdAt":{"$date":"2020-04-28T06:47:53.258Z"}}
{"_id":{"$oid":"5ea7ddcc3d1a5c4210ce8ec7"},"origin":{"province":{"id":"90","label":"Tucumán"},"locality":"SAN MIGUEL DE TUCUMAN","location":{"lat":"-26.8077882","lng":"-65.1960222"},"address":"Rivadavia 3000"},"destination":{"province":{"id":"22","label":"Chaco"},"locality":"CHARATA","location":null,"address":"Barrio Victor Arrudi Nvo"},"mobility":false,"additionalPlaces":0,"economicalIssues":false,"healthIssues":false,"observations":"Soy estudiante, quedé varado toda la cuatena... tengo a toda mi familia allá y muchos problemas familiares que necesito estar ahí por urgencias","stuckedPeopleCount":"0","userId":{"$oid":"5ea7dcaa368159de7f06c727"},"createdAt":{"$date":"2020-04-28T07:39:56.624Z"}}
{"_id":{"$oid":"5ea7e6a33d1a5ca78ace8ec8"},"origin":{"province":{"id":"38","label":"Jujuy"},"locality":"SAN SALVADOR DE JUJUY","location":null,"address":"Fuerza aerea"},"destination":{"province":{"id":"06","label":"Buenos Aires"},"locality":"JOSE C. PAZ","location":null,"address":"Santa paula"},"mobility":false,"additionalPlaces":0,"economicalIssues":false,"healthIssues":true,"observations":"","stuckedPeopleCount":"1","userId":{"$oid":"5ea7e5c2368159de7f06c833"},"createdAt":{"$date":"2020-04-28T08:17:39.320Z"}}
{"_id":{"$oid":"5ea7fb573d1a5c16c1ce8ec9"},"origin":{"province":{"id":"54","label":"Misiones"},"locality":"LEANDRO N. ALEM","location":{"lat":"-27.60608780612245","lng":"-55.3327441632653"},"address":"Tucuman 792"},"destination":{"province":{"id":"02","label":"Ciudad Autónoma de Buenos Aires"},"locality":"CIUDAD DE BUENOS AIRES","location":null,"address":"Franklin d roosevelt 1961"},"mobility":false,"additionalPlaces":0,"economicalIssues":false,"healthIssues":false,"observations":"","userId":{"$oid":"5ea7fafb368159de7f06ca8f"},"createdAt":{"$date":"2020-04-28T09:45:59.075Z"}}
{"_id":{"$oid":"5ea7fb843d1a5c9681ce8eca"},"origin":{"province":{"id":"54","label":"Misiones"},"locality":"LEANDRO N. ALEM","location":{"lat":"-27.60608780612245","lng":"-55.3327441632653"},"address":"Tucuman 792"},"destination":{"province":{"id":"02","label":"Ciudad Autónoma de Buenos Aires"},"locality":"CIUDAD DE BUENOS AIRES","location":{"lat":"-34.554909238775515","lng":"-58.4567018877551"},"address":"Tucuman 792"},"mobility":false,"additionalPlaces":0,"economicalIssues":false,"healthIssues":false,"observations":"","stuckedPeopleCount":"1","userId":{"$oid":"5ea7fafb368159de7f06ca8f"},"createdAt":{"$date":"2020-04-28T09:46:44.271Z"}}
{"_id":{"$oid":"5ea8015e3d1a5c7edfce8ecb"},"origin":{"province":{"id":"62","label":"Río Negro"},"locality":"SAN CARLOS DE BARILOCHE","location":{"lat":"-41.13247034489796","lng":"-71.30009473877551"},"address":"12 de octubre 655"},"destination":{"province":{"id":"50","label":"Mendoza"},"locality":"VILLA HIPODROMO","location":null,"address":"Elena de Roffo "},"mobility":false,"additionalPlaces":0,"economicalIssues":true,"healthIssues":false,"observations":"Estoy desde el 13/3 acá en Bariloche y debería haber viajado a Mendoza el 23/3.  me están prestando plata para poder estar acá. Desde la muni de turismo de Bariloche estaban organizando viajes pero me pedían $6000 de un momento a otro, y no los conseguí. Tengo mí pasaje de regreso por andesmar y me gustaría poder ocuparlo porque no tengo otro modo de viajar. A este momento ya no puedo seguir endeudandome más. En Mza ya no tengo trabajo, y me va tocar volver a vivir con mí mamá. ","stuckedPeopleCount":"1","userId":{"$oid":"5ea7fe5d368159de7f06caf7"},"createdAt":{"$date":"2020-04-28T10:11:42.834Z"}}
{"_id":{"$oid":"5ea807f73d1a5c81e3ce8ecc"},"origin":{"province":{"id":"50","label":"Mendoza"},"locality":"CRUZ DE PIEDRA","location":null,"address":"Nueva 513"},"destination":{"province":{"id":"42","label":"La Pampa"},"locality":"COLONIA SANTA MARIA","location":null,"address":"Don bosco s/n"},"mobility":false,"additionalPlaces":0,"economicalIssues":true,"healthIssues":false,"observations":"","stuckedPeopleCount":"4","userId":{"$oid":"5ea806da368159de7f06cbf0"},"createdAt":{"$date":"2020-04-28T10:39:51.878Z"}}
{"_id":{"$oid":"5ea819d83d1a5cac0bce8ecd"},"origin":{"province":{"id":"30","label":"Entre Ríos"},"locality":"CONCORDIA","location":null,"address":"Bv yuqueri 1451"},"destination":{"province":{"id":"30","label":"Entre Ríos"},"locality":"CHAJARI","location":null,"address":"Mandisovi 1815"},"mobility":true,"additionalPlaces":"1","economicalIssues":true,"healthIssues":false,"observations":"Vine a tener familia y quedé varada en la ciudad de Concordia y quiero volver a la ciudad donde resido, Chajarí","stuckedPeopleCount":"3","userId":{"$oid":"5ea8175a368159de7f06cdc7"},"createdAt":{"$date":"2020-04-28T11:56:08.858Z"}}
{"_id":{"$oid":"5ea81b7d3d1a5c09dcce8ece"},"origin":{"province":{"id":"06","label":"Buenos Aires"},"locality":"LA PLATA","location":null,"address":"diag 526 E18bis y 19 n158"},"destination":{"province":{"id":"78","label":"Santa Cruz"},"locality":"LOS ANTIGUOS","location":{"lat":"-46.5426221","lng":"-71.6307167"},"address":"martin fierro "},"mobility":false,"additionalPlaces":0,"economicalIssues":false,"healthIssues":true,"observations":"mis 2 abuelos y mi tio ","stuckedPeopleCount":"3","userId":{"$oid":"5ea81ae5368159de7f06ce36"},"createdAt":{"$date":"2020-04-28T12:03:09.688Z"}}
{"_id":{"$oid":"5ea81e323d1a5c7996ce8ecf"},"origin":{"province":{"id":"22","label":"Chaco"},"locality":"RESISTENCIA","location":{"lat":"-27.4454934","lng":"-58.9997462"},"address":"Santiago del estero 1100"},"destination":{"province":{"id":"94","label":"Tierra del Fuego, Antártida e Islas del Atlántico Sur"},"locality":"USHUAIA","location":null,"address":"Soldado aguila "},"mobility":false,"additionalPlaces":0,"economicalIssues":false,"healthIssues":false,"observations":"","userId":{"$oid":"5ea81d09368159de7f06ce7b"},"createdAt":{"$date":"2020-04-28T12:14:42.760Z"}}
{"_id":{"$oid":"5ea81f773d1a5c25fdce8ed0"},"origin":{"province":{"id":"22","label":"Chaco"},"locality":"RESISTENCIA","location":{"lat":"-27.4454934","lng":"-58.9997462"},"address":"Santiago del estero 1100"},"destination":{"province":{"id":"94","label":"Tierra del Fuego, Antártida e Islas del Atlántico Sur"},"locality":"USHUAIA","location":null,"address":"Bahia Ushuaia 2700 "},"mobility":false,"additionalPlaces":0,"economicalIssues":true,"healthIssues":true,"observations":"Tiene problemas de salud, no hace 3 meses que tuvo neumonía. Y cada tanto le pasa nuevamente. Y económicamente ya está en las últimas. Se fue de vacaciones por 20 días y ya está casi 2 meses y acá su trabajo están trabajando como pueden para recaudar lo mínimo para cobrar algo y ella no puede hacer nada desde allá y eso la está perjudicando psicológicamente es una persona muy activa. Ojala podamos llegar a una buena solución. Mi mamá está sola allá. Muchas gracias por su aporte! ","stuckedPeopleCount":"1","userId":{"$oid":"5ea81d09368159de7f06ce7b"},"createdAt":{"$date":"2020-04-28T12:20:07.881Z"}}
{"_id":{"$oid":"5ea82c533d1a5ca7cdce8ed1"},"origin":{"province":{"id":"82","label":"Santa Fe"},"locality":"SANTO TOME","location":null,"address":"López y planes 3582"},"destination":{"province":{"id":"06","label":"Buenos Aires"},"locality":"LLAVALLOL","location":null,"address":"Juana Azurduy 1345"},"mobility":false,"additionalPlaces":0,"economicalIssues":true,"healthIssues":false,"observations":"","stuckedPeopleCount":"1","userId":{"$oid":"5ea82baa368159de7f06d02e"},"createdAt":{"$date":"2020-04-28T13:14:59.141Z"}}
{"_id":{"$oid":"5ea830353d1a5c1dcece8ed2"},"origin":{"province":{"id":"90","label":"Tucumán"},"locality":"SAN MIGUEL DE TUCUMAN","location":{"lat":"-26.834242179591836","lng":"-65.22137792653061"},"address":"Lamadrid 1482"},"destination":{"province":{"id":"14","label":"Córdoba"},"locality":"RIO CUARTO","location":{"lat":"-33.12176599387755","lng":"-64.3469613"},"address":"Baigorria 93"},"mobility":false,"additionalPlaces":0,"economicalIssues":true,"healthIssues":false,"observations":"Vine por trabajo a Tucumán y me quedé VARADA en cuarentena desde el día que comenzó todo, sin trabajo y sin dinero. Me desalojan de la pensión porque no puedo pagar.","stuckedPeopleCount":"1","userId":{"$oid":"5ea7a074368159de7f06bf62"},"createdAt":{"$date":"2020-04-28T13:31:33.448Z"}}
{"_id":{"$oid":"5ea831033d1a5c001cce8ed3"},"origin":{"province":{"id":"70","label":"San Juan"},"locality":"RIVADAVIA","location":{"lat":"-31.547711800000002","lng":"-68.55525469070054"},"address":"Barrio San Juan "},"destination":{"province":{"id":"06","label":"Buenos Aires"},"locality":"BERAZATEGUI","location":null,"address":"142 Centro "},"mobility":false,"additionalPlaces":0,"economicalIssues":false,"healthIssues":false,"observations":"Estoy actualmente varada en San Juan, viajo con mi perro schnauzer mini de 8kg (tiene su canil). ","stuckedPeopleCount":"1","userId":{"$oid":"5ea82e38368159de7f06d07f"},"createdAt":{"$date":"2020-04-28T13:34:59.275Z"}}
{"_id":{"$oid":"5ea837913d1a5c360ece8ed4"},"origin":{"province":{"id":"06","label":"Buenos Aires"},"locality":"MERLO","location":{"lat":"-34.6656397","lng":"-58.7577536"},"address":"FRAGA 855"},"destination":{"province":{"id":"50","label":"Mendoza"},"locality":"GODOY CRUZ","location":{"lat":"-32.910706954545454","lng":"-68.85259293636364"},"address":"Gutiérrez 680"},"mobility":false,"additionalPlaces":0,"economicalIssues":true,"healthIssues":false,"observations":"","stuckedPeopleCount":"1","userId":{"$oid":"5ea83436368159de7f06d136"},"createdAt":{"$date":"2020-04-28T14:02:57.112Z"}}
{"_id":{"$oid":"5ea83abd3d1a5c7364ce8ed5"},"origin":{"province":{"id":"06","label":"Buenos Aires"},"locality":"BAHIA BLANCA","location":{"lat":"-38.71097245","lng":"-62.28593602373394"},"address":"BARRIO PACIFICO"},"destination":{"province":{"id":"62","label":"Río Negro"},"locality":"CHOELE CHOEL","location":null,"address":"Pasaje 132, 30"},"mobility":false,"additionalPlaces":0,"economicalIssues":true,"healthIssues":false,"observations":"","stuckedPeopleCount":"1","userId":{"$oid":"5ea839da368159de7f06d1e3"},"createdAt":{"$date":"2020-04-28T14:16:29.834Z"}}
{"_id":{"$oid":"5ea83d4e3d1a5c34e2ce8ed6"},"origin":{"province":{"id":"94","label":"Tierra del Fuego, Antártida e Islas del Atlántico Sur"},"locality":"RIO GRANDE","location":null,"address":"Estancia La Retranca"},"destination":{"province":{"id":"78","label":"Santa Cruz"},"locality":"RIO GALLEGOS","location":null,"address":"Dean Funes 1700"},"mobility":false,"additionalPlaces":0,"economicalIssues":false,"healthIssues":false,"observations":"","stuckedPeopleCount":"3","userId":{"$oid":"5ea83ca9368159de7f06d23b"},"createdAt":{"$date":"2020-04-28T14:27:26.585Z"}}
{"_id":{"$oid":"5ea83ef03d1a5cb811ce8ed7"},"origin":{"province":{"id":"26","label":"Chubut"},"locality":"PUERTO MADRYN","location":{"lat":"-42.75384","lng":"-65.0496133"},"address":"Roca 501"},"destination":{"province":{"id":"02","label":"Ciudad Autónoma de Buenos Aires"},"locality":"BOEDO","location":{"lat":"-34.62004099183674","lng":"-58.409878946938775"},"address":"Av. Independencia 3137"},"mobility":false,"additionalPlaces":"","economicalIssues":false,"healthIssues":false,"observations":"Necesito volver a Buenos Aires, tenía vuelo para el 30 de marzo pero se canceló.","stuckedPeopleCount":"1","userId":{"$oid":"5ea83de6368159de7f06d262"},"createdAt":{"$date":"2020-04-28T14:34:24.576Z"}}
{"_id":{"$oid":"5ea83f633d1a5c40d1ce8ed8"},"origin":{"province":{"id":"06","label":"Buenos Aires"},"locality":"BERNAL","location":{"lat":"-34.7034103","lng":"-58.2805708"},"address":"Carabelas 1225"},"destination":{"province":{"id":"50","label":"Mendoza"},"locality":"GENERAL ALVEAR","location":null,"address":"Diagonal Carlos pellegrini y tricerritricerri 15"},"mobility":false,"additionalPlaces":0,"economicalIssues":true,"healthIssues":false,"observations":"Somos dos estudiantes y estamos varadas en Buenos Aires desde que empezó la cuarentena, no podemos sostener mas la situación y necesitamos con urgencia volver a nuestros hogares.","stuckedPeopleCount":"2","userId":{"$oid":"5ea83e9f368159de7f06d277"},"createdAt":{"$date":"2020-04-28T14:36:19.689Z"}}
{"_id":{"$oid":"5ea8414c3d1a5ccf24ce8ed9"},"origin":{"province":{"id":"06","label":"Buenos Aires"},"locality":"MAR DEL PLATA","location":{"lat":"-38.00879","lng":"-57.544418"},"address":"Falucho 1900"},"destination":{"province":{"id":"26","label":"Chubut"},"locality":"TRELEW","location":{"lat":"-43.2638768","lng":"-65.3075499"},"address":"Marconi 1500"},"mobility":false,"additionalPlaces":0,"economicalIssues":false,"healthIssues":false,"observations":"Estudiante universitaria que quiere volver a su hogar","stuckedPeopleCount":"1","userId":{"$oid":"5ea84017368159de7f06d2a6"},"createdAt":{"$date":"2020-04-28T14:44:28.453Z"}}
{"_id":{"$oid":"5ea8450e3d1a5cceb9ce8eda"},"origin":{"province":{"id":"02","label":"Ciudad Autónoma de Buenos Aires"},"locality":"VILLA DEL PARQUE","location":{"lat":"-34.601045","lng":"-58.4939108"},"address":"Ricardo Gutierrez 3479"},"destination":{"province":{"id":"82","label":"Santa Fe"},"locality":"RAFAELA","location":{"lat":"-31.2613761","lng":"-61.4538661"},"address":"Martin Fierro 8"},"mobility":false,"additionalPlaces":0,"economicalIssues":true,"healthIssues":false,"observations":"","stuckedPeopleCount":"1","userId":{"$oid":"5ea844a1368159de7f06d32e"},"createdAt":{"$date":"2020-04-28T15:00:30.526Z"}}
{"_id":{"$oid":"5ea84b873d1a5c37c2ce8edb"},"origin":{"province":{"id":"18","label":"Corrientes"},"locality":"ITATI","location":null,"address":"av 25 de mayo"},"destination":{"province":{"id":"06","label":"Buenos Aires"},"locality":"BURZACO","location":null,"address":"hipolito irigoyen "},"mobility":false,"additionalPlaces":0,"economicalIssues":false,"healthIssues":true,"observations":"son 2 personas mayores de 70 años que fueron por unos dias y ya hace mas de un mes que estan solos y sin saber como volver.se estan empezando a angustiar y deprimir por la situacion.necesitan volver a realizarce  sus controles medicos ,y volver a las comodidades de su hogar,ya que estan en un monoambiente y con poca disponibilidad dineraria .","stuckedPeopleCount":"2","userId":{"$oid":"5ea847d7368159de7f06d394"},"createdAt":{"$date":"2020-04-28T15:28:07.121Z"}}
{"_id":{"$oid":"5ea853093d1a5ce5abce8edc"},"origin":{"province":{"id":"50","label":"Mendoza"},"locality":"LUJAN DE CUYO","location":null,"address":"Mateu 987"},"destination":{"province":{"id":"06","label":"Buenos Aires"},"locality":"LA PLATA","location":null,"address":"calle 5 Nro 630"},"mobility":false,"additionalPlaces":0,"economicalIssues":false,"healthIssues":false,"observations":"Hola! Me encuentro realizando el aislamiento hace un mes y medio en Chacras de Coria, Lujan de Cuyo, MENDOZA y me urge volver a mi casa, lugar de residencia La Plata, Provincia de Buenos Aires. Cualquier dato que pueda facilitarme la vuelta a casa será bienvenido. Muchas gracias","stuckedPeopleCount":"2","userId":{"$oid":"5ea85170368159de7f06d4bd"},"createdAt":{"$date":"2020-04-28T16:00:09.508Z"}}
{"_id":{"$oid":"5ea85b7c3d1a5c4fb7ce8edd"},"origin":{"province":{"id":"66","label":"Salta"},"locality":"ANGASTACO","location":null,"address":"barrio fonavi 1 casa 17"},"destination":{"province":{"id":"02","label":"Ciudad Autónoma de Buenos Aires"},"locality":"VILLA CRESPO","location":{"lat":"-34.598512732653056","lng":"-58.44710244693878"},"address":"thames 147"},"mobility":false,"additionalPlaces":0,"economicalIssues":false,"healthIssues":false,"observations":"se fue en verano y en este momento cambió la temperatura y no cuenta con abrigo necesario. Tampoco nos fue posible enviarle dinero ya que no tiene cuenta bancaria, por lo que el dinero es un problema","stuckedPeopleCount":"1","userId":{"$oid":"5ea8597d368159de7f06d5b0"},"createdAt":{"$date":"2020-04-28T16:36:12.922Z"}}
{"_id":{"$oid":"5ea85be93d1a5cbb07ce8ede"},"origin":{"province":{"id":"14","label":"Córdoba"},"locality":"CUESTA BLANCA","location":{"lat":"-31.4819883","lng":"-64.5781409"},"address":"angel crosetto 100"},"destination":{"province":{"id":"26","label":"Chubut"},"locality":"COMODORO RIVADAVIA","location":null,"address":"av kennedy 1000"},"mobility":false,"additionalPlaces":0,"economicalIssues":true,"healthIssues":false,"observations":"vine por cuestiones de trabajo pero en la actualidad estoy desempleada","stuckedPeopleCount":"1","userId":{"$oid":"5ea85ab8368159de7f06d5d7"},"createdAt":{"$date":"2020-04-28T16:38:01.646Z"}}
{"_id":{"$oid":"5ea85caa3d1a5c79bcce8edf"},"origin":{"province":{"id":"30","label":"Entre Ríos"},"locality":"PARANA","location":{"lat":"-31.7742437","lng":"-60.4279442"},"address":"Gobernador Parera 3200"},"destination":{"province":{"id":"14","label":"Córdoba"},"locality":"CORDOBA","location":null,"address":"Boero 2200"},"mobility":true,"additionalPlaces":0,"economicalIssues":true,"healthIssues":true,"observations":"","stuckedPeopleCount":"1","userId":{"$oid":"5ea85635368159de7f06d54b"},"createdAt":{"$date":"2020-04-28T16:41:14.779Z"}}
{"_id":{"$oid":"5ea862383d1a5c6c92ce8ee0"},"origin":{"province":{"id":"62","label":"Río Negro"},"locality":"SAN CARLOS DE BARILOCHE","location":{"lat":"-41.1467613","lng":"-71.2873633"},"address":"Neuquén 1700"},"destination":{"province":{"id":"18","label":"Corrientes"},"locality":"CORRIENTES","location":null,"address":"Mendoza al sur"},"mobility":false,"additionalPlaces":0,"economicalIssues":false,"healthIssues":false,"observations":"Vine por trabajo, pero ante esta situación se complicó. Estoy en la casa de familiares, pero quiero regresar a mi casa. ","stuckedPeopleCount":"1","userId":{"$oid":"5ea85fa0368159de7f06d66c"},"createdAt":{"$date":"2020-04-28T17:04:56.676Z"}}
{"_id":{"$oid":"5ea863043d1a5c26dece8ee1"},"origin":{"province":{"id":"38","label":"Jujuy"},"locality":"SAN PEDRO","location":null,"address":"Güemes N°53 centro"},"destination":{"province":{"id":"06","label":"Buenos Aires"},"locality":"SAN MIGUEL","location":null,"address":"Rosetti N°137 Muñiz"},"mobility":false,"additionalPlaces":0,"economicalIssues":false,"healthIssues":false,"observations":"Puedo pagar mi pasaje a un precio moderado como si viajara normalmente en micro ","stuckedPeopleCount":"1","userId":{"$oid":"5ea8622a368159de7f06d6ba"},"createdAt":{"$date":"2020-04-28T17:08:20.700Z"}}
{"_id":{"$oid":"5ea865583d1a5c85eace8ee2"},"origin":{"province":{"id":"86","label":"Santiago del Estero"},"locality":"SANTIAGO DEL ESTERO","location":{"lat":"-27.8238535","lng":"-64.2514728"},"address":"Trinidad y Tobago 2900"},"destination":{"province":{"id":"02","label":"Ciudad Autónoma de Buenos Aires"},"locality":"RECOLETA","location":{"lat":"-34.5886412","lng":"-58.39423419464123"},"address":"Vicente Lopez 1800"},"mobility":false,"additionalPlaces":0,"economicalIssues":true,"healthIssues":false,"observations":"","stuckedPeopleCount":"1","userId":{"$oid":"5ea8631a368159de7f06d6d8"},"createdAt":{"$date":"2020-04-28T17:18:16.133Z"}}
{"_id":{"$oid":"5ea865693d1a5c9df4ce8ee3"},"origin":{"province":{"id":"86","label":"Santiago del Estero"},"locality":"SANTIAGO DEL ESTERO","location":{"lat":"-27.8238535","lng":"-64.2514728"},"address":"Trinidad y Tobago 2900"},"destination":{"province":{"id":"02","label":"Ciudad Autónoma de Buenos Aires"},"locality":"RECOLETA","location":{"lat":"-34.5886412","lng":"-58.39423419464123"},"address":"Vicente Lopez 1800"},"mobility":false,"additionalPlaces":0,"economicalIssues":true,"healthIssues":false,"observations":"","stuckedPeopleCount":"1","userId":{"$oid":"5ea8631a368159de7f06d6d8"},"createdAt":{"$date":"2020-04-28T17:18:33.014Z"}}
{"_id":{"$oid":"5ea865c93d1a5c3bd7ce8ee4"},"origin":{"province":{"id":"02","label":"Ciudad Autónoma de Buenos Aires"},"locality":"PALERMO","location":{"lat":"-34.58604338367347","lng":"-58.414796936734696"},"address":"Av Santa fe 3576"},"destination":{"province":{"id":"54","label":"Misiones"},"locality":"LEANDRO N. ALEM","location":{"lat":"-27.6655054","lng":"-55.2114755"},"address":"Av san martin 500"},"mobility":true,"additionalPlaces":0,"economicalIssues":false,"healthIssues":false,"observations":"","userId":{"$oid":"5ea86526368159de7f06d71b"},"createdAt":{"$date":"2020-04-28T17:20:09.316Z"}}
{"_id":{"$oid":"5ea869ab3d1a5c381cce8ee5"},"origin":{"province":{"id":"62","label":"Río Negro"},"locality":"SAN CARLOS DE BARILOCHE","location":null,"address":"Barrio 270 viviendas "},"destination":{"province":{"id":"22","label":"Chaco"},"locality":"RESISTENCIA","location":null,"address":"Duvivier 2000"},"mobility":false,"additionalPlaces":0,"economicalIssues":true,"healthIssues":false,"observations":"En casa mus padres son mayores de riesgo y una hermana discapacitada, aparte no tgo más dinero.","stuckedPeopleCount":"1","userId":{"$oid":"5ea868b7368159de7f06d78a"},"createdAt":{"$date":"2020-04-28T17:36:43.610Z"}}
{"_id":{"$oid":"5ea86a4f3d1a5c6ca7ce8ee6"},"origin":{"province":{"id":"22","label":"Chaco"},"locality":"SANTA SYLVINA","location":{"lat":"-27.8259909","lng":"-61.1381983"},"address":"25 de mayo 800"},"destination":{"province":{"id":"06","label":"Buenos Aires"},"locality":"MORENO","location":{"lat":"-34.6353104","lng":"-58.880092"},"address":"IRALA 400"},"mobility":false,"additionalPlaces":0,"economicalIssues":false,"healthIssues":false,"observations":"","stuckedPeopleCount":"-1","userId":{"$oid":"5ea86489368159de7f06d709"},"createdAt":{"$date":"2020-04-28T17:39:27.536Z"}}
{"_id":{"$oid":"5ea86d9b3d1a5c2235ce8ee7"},"origin":{"province":{"id":"74","label":"San Luis"},"locality":"SAN LUIS","location":{"lat":"-32.4677074","lng":"-66.9624276"},"address":"Parque Nacional Sierra de las Quijadas"},"destination":{"province":{"id":"02","label":"Ciudad Autónoma de Buenos Aires"},"locality":"FLORESTA","location":{"lat":"-34.6320989","lng":"-58.4793707"},"address":"Rivadavia y Joaquin V. Gonzalez"},"mobility":false,"additionalPlaces":0,"economicalIssues":false,"healthIssues":false,"observations":"Persona mayor, tiene 79 años y viajó con ropa de verano por una semana únicamente, ahora está haciendo cada vez más frío y necesita poder abastecerse de toda su medicación, lo cual acá no es posible.","stuckedPeopleCount":"1","userId":{"$oid":"5ea86ced368159de7f06d80e"},"createdAt":{"$date":"2020-04-28T17:53:31.756Z"}}
{"_id":{"$oid":"5ea87a9e3d1a5c4673ce8ee8"},"origin":{"province":{"id":"50","label":"Mendoza"},"locality":"MAIPU","location":{"lat":"-32.9510913","lng":"-68.7532325"},"address":"25 de mayo"},"destination":{"province":{"id":"10","label":"Catamarca"},"locality":"SAN FERNANDO DEL VALLE DE CATAMARCA","location":null,"address":"Hipólito yrigoyen "},"mobility":false,"additionalPlaces":"1","economicalIssues":true,"healthIssues":false,"observations":"","stuckedPeopleCount":"0","userId":{"$oid":"5ea878e6368159de7f06d96c"},"createdAt":{"$date":"2020-04-28T18:49:02.563Z"}}
{"_id":{"$oid":"5ea87e183d1a5c991cce8ee9"},"origin":{"province":{"id":"90","label":"Tucumán"},"locality":"SAN MIGUEL DE TUCUMAN","location":null,"address":"Peru"},"destination":{"province":{"id":"86","label":"Santiago del Estero"},"locality":"LA BANDA","location":null,"address":"Av Belgrano"},"mobility":false,"additionalPlaces":0,"economicalIssues":false,"healthIssues":false,"observations":"Necesito volver a mi familia. Solamente tengo una valija y una mochila. ","stuckedPeopleCount":"1","userId":{"$oid":"5ea87c92368159de7f06d9db"},"createdAt":{"$date":"2020-04-28T19:03:52.761Z"}}
{"_id":{"$oid":"5ea880103d1a5c06f4ce8eea"},"origin":{"province":{"id":"02","label":"Ciudad Autónoma de Buenos Aires"},"locality":"CIUDAD DE BUENOS AIRES","location":{"lat":"-34.59460477755102","lng":"-58.387797559183674"},"address":"Arenales 1433 "},"destination":{"province":{"id":"30","label":"Entre Ríos"},"locality":"CONCORDIA","location":null,"address":"Cabo sendros y chile"},"mobility":false,"additionalPlaces":0,"economicalIssues":true,"healthIssues":false,"observations":"","stuckedPeopleCount":"1","userId":{"$oid":"5ea87e35368159de7f06da0e"},"createdAt":{"$date":"2020-04-28T19:12:16.262Z"}}
{"_id":{"$oid":"5ea880c93d1a5c4ba7ce8eeb"},"origin":{"province":{"id":"38","label":"Jujuy"},"locality":"SAN PEDRO","location":{"lat":"-24.2444974","lng":"-64.8801786"},"address":"Abraham 157"},"destination":{"province":{"id":"46","label":"La Rioja"},"locality":"LA RIOJA","location":{"lat":"-29.4165684","lng":"-66.8631552"},"address":"Mariano moreno 132"},"mobility":false,"additionalPlaces":0,"economicalIssues":true,"healthIssues":false,"observations":"No tengo Plata ","stuckedPeopleCount":"2","userId":{"$oid":"5ea88055368159de7f06da50"},"createdAt":{"$date":"2020-04-28T19:15:21.978Z"}}
{"_id":{"$oid":"5ea881e63d1a5c078fce8eec"},"origin":{"province":{"id":"54","label":"Misiones"},"locality":"SAN PEDRO","location":null,"address":"Universidad de Ciencias Forestales"},"destination":{"province":{"id":"90","label":"Tucumán"},"locality":"CONCEPCION","location":{"lat":"-27.354523","lng":"-65.5902857"},"address":"Juana Manso 926"},"mobility":false,"additionalPlaces":"0","economicalIssues":true,"healthIssues":false,"observations":"","userId":{"$oid":"5ea880b7368159de7f06da60"},"createdAt":{"$date":"2020-04-28T19:20:06.283Z"}}
{"_id":{"$oid":"5ea8844c3d1a5cdaaace8eed"},"origin":{"province":{"id":"22","label":"Chaco"},"locality":"CONCEPCION DEL BERMEJO","location":{"lat":"-27.440901","lng":"-58.9928028"},"address":"avenida san martin"},"destination":{"province":{"id":"06","label":"Buenos Aires"},"locality":"BELEN DE ESCOBAR","location":null,"address":"sarmiento 2088"},"mobility":false,"additionalPlaces":0,"economicalIssues":true,"healthIssues":true,"observations":"Mi mama tiene 43 años y problemas del corazón , la presión entre otras cosas .. y mi papa 40 y esta trabajando en el monte en este momento para sobrevivir como se pueda","stuckedPeopleCount":"2","userId":{"$oid":"5ea881e8368159de7f06da88"},"createdAt":{"$date":"2020-04-28T19:30:20.157Z"}}
{"_id":{"$oid":"5ea885603d1a5ccbf5ce8eee"},"origin":{"province":{"id":"14","label":"Córdoba"},"locality":"CORDOBA","location":{"lat":"-31.42164","lng":"-64.1775136"},"address":"Balcarce 300"},"destination":{"province":{"id":"62","label":"Río Negro"},"locality":"CIPOLLETTI","location":{"lat":"-38.978519750000004","lng":"-67.83969077084174"},"address":"25 de mayo 1521"},"mobility":false,"additionalPlaces":0,"economicalIssues":false,"healthIssues":false,"observations":"En lo posible tiene que ser alguien que quiera trasladarme con mi mascota es un perro chico-mediano, acostumbrado a viajar en auto !! Muchas gracias ","stuckedPeopleCount":"2","userId":{"$oid":"5ea8847b368159de7f06dad6"},"createdAt":{"$date":"2020-04-28T19:34:56.838Z"}}
